{"type":"FeatureCollection","features":[{"type": "Feature", "geometry": {"coordinates": [2.431835120348986, 48.943610884623475, 0.0], "type": "Point"}, "properties": {"adresse": "PARC DES EXPOSITIONS, PARIS LE BOURGET, 93350 LE B", "dep": "93", "geo_point_2d": [48.9436108846, 2.43183512035], "objectid": "2", "nomcom": "LE BOURGET", "insee": "93013", "typo_niv3": "Centre de congr\u00e8s et parc d'exposition", "nom_carto": "Paris le Bourget"}},{"type": "Feature", "geometry": {"coordinates": [2.387193024935043, 48.89597647860909, 0.0], "type": "Point"}, "properties": {"adresse": "30, AVENUE CORENTIN CARIOU, 75930 PARIS CEDEX 19", "dep": "75", "geo_point_2d": [48.8959764786, 2.38719302494], "objectid": "3", "nomcom": "PARIS", "insee": "75119", "typo_niv3": "Centre de congr\u00e8s et parc d'exposition", "nom_carto": "CIT\u00c9 DES SCIENCES ET DE L'INDUSTRIE"}},{"type": "Feature", "geometry": {"coordinates": [2.391752276223555, 48.89008657646944, 0.0], "type": "Point"}, "properties": {"adresse": "211, AVENUE JEAN JAUR\u00c8S, 75019 PARIS", "dep": "75", "geo_point_2d": [48.8900865765, 2.39175227622], "objectid": "5", "nomcom": "PARIS", "insee": "75119", "typo_niv3": "Centre de congr\u00e8s et parc d'exposition", "nom_carto": "LA GRANDE HALLE DE LA VILLETTE"}},{"type": "Feature", "geometry": {"coordinates": [2.123517078960385, 48.80263712268375, 0.0], "type": "Point"}, "properties": {"adresse": "10, RUE DE LA CHANCELLERIE, 78000 VERSAILLES", "dep": "78", "geo_point_2d": [48.8026371227, 2.12351707896], "objectid": "13", "nomcom": "VERSAILLES", "insee": "78646", "typo_niv3": "Centre de congr\u00e8s et parc d'exposition", "nom_carto": "PALAIS DES CONGR\u00c8S DE VERSAILLES"}},{"type": "Feature", "geometry": {"coordinates": [2.113270383598114, 49.047168310110564, 25.672000000005937], "type": "Point"}, "properties": {"adresse": "AVENUE RICHARD DE TOUR", "dep": "95", "geo_point_2d": [49.0471683101, 2.1132703836], "objectid": "22", "nomcom": "Saint-OUEN-L'AUMONE", "insee": "95572", "typo_niv3": "Diffusion de l'art (autre que mus\u00e9e)", "nom_carto": "Abbaye de Maubuisson"}},{"type": "Feature", "geometry": {"coordinates": [2.547232181133371, 48.69549203172327, -100000.0], "type": "Point"}, "properties": {"adresse": "RUE DU MOULIN NEUF", "dep": "94", "geo_point_2d": [48.6954920317, 2.54723218113], "objectid": "39", "nomcom": "PERIGNY", "insee": "94056", "typo_niv3": "Diffusion de l'art (autre que mus\u00e9e)", "nom_carto": "Fondation Dubuffet"}},{"type": "Feature", "geometry": {"coordinates": [2.335818638937509, 48.860996362308484, 0.0], "type": "Point"}, "properties": {"adresse": "ENTR\u00c9E PRINCIPALE PAR LA PYRAMIDE - (OU PAR LA GALERIE DU CARROUSEL)", "dep": "75", "geo_point_2d": [48.8609963623, 2.33581863894], "objectid": "69", "nomcom": "Paris", "insee": "75101", "typo_niv3": "Mus\u00e9e et \u00e9comus\u00e9e", "nom_carto": "Mus\u00e9e du Louvre"}},{"type": "Feature", "geometry": {"coordinates": [2.345080346959076, 48.85537061858154, 0.0], "type": "Point"}, "properties": {"adresse": "6 BOULEVARD DU PALAIS", "dep": "75", "geo_point_2d": [48.8553706186, 2.34508034696], "objectid": "70", "nomcom": "Paris", "insee": "75101", "typo_niv3": "Site et monument", "nom_carto": "Sainte-Chapelle"}},{"type": "Feature", "geometry": {"coordinates": [2.362435938246104, 48.85734344184478, 0.0], "type": "Point"}, "properties": {"adresse": "23 RUE DE S\u00c9VIGN\u00c9", "dep": "75", "geo_point_2d": [48.8573434418, 2.36243593825], "objectid": "77", "nomcom": "Paris", "insee": "75103", "typo_niv3": "Mus\u00e9e et \u00e9comus\u00e9e", "nom_carto": "Mus\u00e9e Carnavalet - mus\u00e9e de l'histoire de Paris"}},{"type": "Feature", "geometry": {"coordinates": [2.36176762959474, 48.85714951388949, 0.0], "type": "Point"}, "properties": {"adresse": "24 RUE PAV\u00c9E", "dep": "75", "geo_point_2d": [48.8571495139, 2.36176762959], "objectid": "84", "nomcom": "Paris", "insee": "75104", "typo_niv3": "Mus\u00e9e et \u00e9comus\u00e9e", "nom_carto": "Biblioth\u00e8que historique de la ville de Paris - h\u00f4tel de Lamoignon"}},{"type": "Feature", "geometry": {"coordinates": [2.366889881626245, 48.855310037576245, 0.0], "type": "Point"}, "properties": {"adresse": "21BIS RUE DES TOURNELLES", "dep": "75", "geo_point_2d": [48.8553100376, 2.36688988163], "objectid": "100", "nomcom": "Paris", "insee": "75104", "typo_niv3": "Site et monument", "nom_carto": "Synagogue de la rue des Tournelles"}},{"type": "Feature", "geometry": {"coordinates": [2.343533036712102, 48.84869305587031, 0.0], "type": "Point"}, "properties": {"adresse": "47 RUE DES ECOLES", "dep": "75", "geo_point_2d": [48.8486930559, 2.34353303671], "objectid": "103", "nomcom": "Paris", "insee": "75105", "typo_niv3": "Site et monument", "nom_carto": "Sorbonne"}},{"type": "Feature", "geometry": {"coordinates": [2.347049518103236, 48.85201607477435, 0.0], "type": "Point"}, "properties": {"adresse": "79 RUE GALANDE", "dep": "75", "geo_point_2d": [48.8520160748, 2.3470495181], "objectid": "111", "nomcom": "Paris", "insee": "75105", "typo_niv3": "Site et monument", "nom_carto": "\u00c9glise Saint-Julien-le-Pauvre"}},{"type": "Feature", "geometry": {"coordinates": [2.357737929370776, 48.84180721977925, 0.0], "type": "Point"}, "properties": {"adresse": "36 RUE GEOFFREY Saint-HILAIRE", "dep": "75", "geo_point_2d": [48.8418072198, 2.35773792937], "objectid": "120", "nomcom": "Paris", "insee": "75105", "typo_niv3": "Mus\u00e9e et \u00e9comus\u00e9e", "nom_carto": "Galerie de min\u00e9ralogie et de g\u00e9ologie"}},{"type": "Feature", "geometry": {"coordinates": [2.318795180321546, 48.867594679600494, 0.0], "type": "Point"}, "properties": {"adresse": "1 AVENUE GABRIEL", "dep": "75", "geo_point_2d": [48.8675946796, 2.31879518032], "objectid": "171", "nomcom": "Paris", "insee": "75108", "typo_niv3": "Mus\u00e9e et \u00e9comus\u00e9e", "nom_carto": "Espace Pierre Cardin"}},{"type": "Feature", "geometry": {"coordinates": [2.325932154179136, 48.87079571788341, 0.0], "type": "Point"}, "properties": {"adresse": "28 PLACE DE LA MADELEINE", "dep": "75", "geo_point_2d": [48.8707957179, 2.32593215418], "objectid": "178", "nomcom": "Paris", "insee": "75108", "typo_niv3": "Mus\u00e9e et \u00e9comus\u00e9e", "nom_carto": "Pinacoth\u00e8que de Paris"}},{"type": "Feature", "geometry": {"coordinates": [2.337397404968094, 48.87832138406351, 0.0], "type": "Point"}, "properties": {"adresse": "27 PLACE Saint-GEORGES", "dep": "75", "geo_point_2d": [48.8783213841, 2.33739740497], "objectid": "182", "nomcom": "Paris", "insee": "75109", "typo_niv3": "Mus\u00e9e et \u00e9comus\u00e9e", "nom_carto": "Fondation Dosne-Thiers"}},{"type": "Feature", "geometry": {"coordinates": [2.359526548597269, 48.837325511137514, 0.0], "type": "Point"}, "properties": {"adresse": "82 BOULEVARD DE L'H\u00d4PITAL", "dep": "75", "geo_point_2d": [48.8373255111, 2.3595265486], "objectid": "201", "nomcom": "Paris", "insee": "75113", "typo_niv3": "Site et monument", "nom_carto": "Eglise Saint-Marcel"}},{"type": "Feature", "geometry": {"coordinates": [2.313985756039981, 48.830343316199276, 0.0], "type": "Point"}, "properties": {"adresse": "3 RUE JONQUOY - ESPACE D'ART INTERNATIONAL", "dep": "75", "geo_point_2d": [48.8303433162, 2.31398575604], "objectid": "209", "nomcom": "Paris", "insee": "75114", "typo_niv3": "Mus\u00e9e et \u00e9comus\u00e9e", "nom_carto": "Mus\u00e9e Adzak"}},{"type": "Feature", "geometry": {"coordinates": [2.28606597835857, 48.862556562029816, 0.0], "type": "Point"}, "properties": {"adresse": "2 RUE DU COMMANDANT SCHLOESING", "dep": "75", "geo_point_2d": [48.862556562, 2.28606597836], "objectid": "220", "nomcom": "Paris", "insee": "75116", "typo_niv3": "Site et monument", "nom_carto": "Cimeti\u00e8re de Passy"}},{"type": "Feature", "geometry": {"coordinates": [2.338181307113538, 48.88453014725002, 0.0], "type": "Point"}, "properties": {"adresse": "SQUARE DES ABBESSES", "dep": "75", "geo_point_2d": [48.8845301473, 2.33818130711], "objectid": "249", "nomcom": "Paris", "insee": "75118", "typo_niv3": "Site et monument", "nom_carto": "Mur des je t'aime"}},{"type": "Feature", "geometry": {"coordinates": [2.398202202456028, 48.88847131059899, 0.0], "type": "Point"}, "properties": {"adresse": "221 AVENUE JEAN-JAUR\u00c8S", "dep": "75", "geo_point_2d": [48.8884713106, 2.39820220246], "objectid": "253", "nomcom": "Paris", "insee": "75119", "typo_niv3": "Site et monument", "nom_carto": "Philharmonie de Paris"}},{"type": "Feature", "geometry": {"coordinates": [2.379315357769092, 48.870523419472526, 0.0], "type": "Point"}, "properties": {"adresse": "121 RUE DE M\u00c9NILMONTANT", "dep": "75", "geo_point_2d": [48.8705234195, 2.37931535777], "objectid": "260", "nomcom": "Paris", "insee": "75120", "typo_niv3": "Site et monument", "nom_carto": "Pavillon carr\u00e9 de Baudouin"}},{"type": "Feature", "geometry": {"coordinates": [2.623958308379577, 48.85693557316839, 0.0], "type": "Point"}, "properties": {"adresse": "7 BOULEVARD PIERRE-CARLE", "dep": "77", "geo_point_2d": [48.8569355732, 2.62395830838], "objectid": "278", "nomcom": "NOISIEL", "insee": "77337", "typo_niv3": "Site et monument", "nom_carto": "Si\u00e8ge de Nestl\u00e9 France"}},{"type": "Feature", "geometry": {"coordinates": [2.213837098012124, 48.87158688051046, 0.0], "type": "Point"}, "properties": {"adresse": "AVENUE DU PROFESSEUR L\u00c9ON BERNARD", "dep": "92", "geo_point_2d": [48.8715868805, 2.21383709801], "objectid": "344", "nomcom": "SURESNES", "insee": "92073", "typo_niv3": "Site et monument", "nom_carto": "M\u00e9morial de la France combattante"}},{"type": "Feature", "geometry": {"coordinates": [2.267339332515474, 48.773152998912636, 0.0], "type": "Point"}, "properties": {"adresse": "87 RUE DE CHATEAUBRIAND", "dep": "92", "geo_point_2d": [48.7731529989, 2.26733933252], "objectid": "345", "nomcom": "CHATENAY-MALABRY", "insee": "92019", "typo_niv3": "Mus\u00e9e et \u00e9comus\u00e9e", "nom_carto": "Maison de Chateaubriand"}},{"type": "Feature", "geometry": {"coordinates": [2.326095050825349, 48.755158958396166, 0.0], "type": "Point"}, "properties": {"adresse": "41 RUE MAURICE T\u00c9NINE", "dep": "94", "geo_point_2d": [48.7551589584, 2.32609505083], "objectid": "354", "nomcom": "FRESNES", "insee": "94034", "typo_niv3": "Mus\u00e9e et \u00e9comus\u00e9e", "nom_carto": "Ecomus\u00e9e du val de Bi\u00e8vre"}},{"type": "Feature", "geometry": {"coordinates": [2.390834267032334, 48.809355528222376, 0.0], "type": "Point"}, "properties": {"adresse": "25-29 RUE RASPAIL", "dep": "94", "geo_point_2d": [48.8093555282, 2.39083426703], "objectid": "355", "nomcom": "IVRY-SUR-SEINE", "insee": "94041", "typo_niv3": "Site et monument", "nom_carto": "Manufacture des Oeillets"}},{"type": "Feature", "geometry": {"coordinates": [2.169981433946068, 49.07306848160088, 0.0], "type": "Point"}, "properties": {"adresse": "61 RUE DAUBIGNY", "dep": "95", "geo_point_2d": [49.0730684816, 2.16998143395], "objectid": "362", "nomcom": "AUVERS-SUR-OISE", "insee": "95039", "typo_niv3": "Mus\u00e9e et \u00e9comus\u00e9e", "nom_carto": "Atelier de Daubigny"}},{"type": "Feature", "geometry": {"coordinates": [1.89123898827479, 49.12625844231002, 0.0], "type": "Point"}, "properties": {"adresse": "31 GRANDE RUE", "dep": "95", "geo_point_2d": [49.1262584423, 1.89123898827], "objectid": "366", "nomcom": "COMMENY", "insee": "95169", "typo_niv3": "Mus\u00e9e et \u00e9comus\u00e9e", "nom_carto": "Maison du pain"}},{"type": "Feature", "geometry": {"coordinates": [1.63847280552616, 49.00494400465563, 0.0], "type": "Point"}, "properties": {"adresse": "ESCALE DE GUERNES", "dep": "78", "geo_point_2d": [49.0049440047, 1.63847280553], "objectid": "441", "nomcom": "GUERNES", "insee": "78290", "typo_niv3": "Haltes, escales ou ports fluviaux de plaisance", "nom_carto": "Escale de Guernes"}},{"type": "Feature", "geometry": {"coordinates": [2.495281638869765, 48.90994318503049, 0.0], "type": "Point"}, "properties": {"adresse": "ESCALE DE PAVILLONS-SOUS-BOIS", "dep": "93", "geo_point_2d": [48.909943185, 2.49528163887], "objectid": "445", "nomcom": "LES PAVILLONS-SOUS-BOIS", "insee": "93057", "typo_niv3": "Haltes, escales ou ports fluviaux de plaisance", "nom_carto": "Escale de Pavillons-sous-Bois"}},{"type": "Feature", "geometry": {"coordinates": [2.325954582579723, 48.86093197116774, 0.0], "type": "Point"}, "properties": {"adresse": "MUS\u00c9E D'ORSAY", "dep": "75", "geo_point_2d": [48.8609319712, 2.32595458258], "objectid": "447", "nomcom": "Paris", "insee": "75107", "typo_niv3": "Haltes, escales ou ports fluviaux de plaisance", "nom_carto": "Escale de Solf\u00e9rino - mus\u00e9e d'Orsay"}},{"type": "Feature", "geometry": {"coordinates": [2.277964290677848, 48.93877743151486, 0.0], "type": "Point"}, "properties": {"dep": "92", "geo_point_2d": [48.9387774315, 2.27796429068], "objectid": "466", "nomcom": "GENNEVILLIERS", "insee": "92036", "typo_niv3": "Haltes, escales ou ports fluviaux de plaisance", "nom_carto": "Escale de Gennevilliers"}},{"type": "Feature", "geometry": {"coordinates": [2.340256226996108, 48.92957668891948, 0.0], "type": "Point"}, "properties": {"dep": "93", "geo_point_2d": [48.9295766889, 2.340256227], "objectid": "467", "nomcom": "SAINT-DENIS", "insee": "93066", "typo_niv3": "Haltes, escales ou ports fluviaux de plaisance", "nom_carto": "Escale de Saint-Denis, stade de France"}},{"type": "Feature", "geometry": {"coordinates": [2.167586830191531, 48.89592822790097, 0.0], "type": "Point"}, "properties": {"adresse": "23, RUE DU PORT", "dep": "92", "geo_point_2d": [48.8959282279, 2.16758683019], "objectid": "473", "nomcom": "NANTERRE", "insee": "92050", "typo_niv3": "Haltes, escales ou ports fluviaux de plaisance", "nom_carto": "Halte"}},{"type": "Feature", "geometry": {"coordinates": [2.761920515700346, 48.4533420775771, 0.0], "type": "Point"}, "properties": {"adresse": "HALTE DE SAMOIS", "dep": "77", "geo_point_2d": [48.4533420776, 2.7619205157], "objectid": "483", "nomcom": "SAMOIS-SUR-SEINE", "insee": "77441", "typo_niv3": "Haltes, escales ou ports fluviaux de plaisance", "nom_carto": "Halte"}},{"type": "Feature", "geometry": {"coordinates": [1.576346698151841, 49.043219763973276, 0.0], "type": "Point"}, "properties": {"adresse": "FACE 65 RUE EMILE ZOLA", "dep": "78", "geo_point_2d": [49.043219764, 1.57634669815], "objectid": "511", "nomcom": "BENNECOURT", "insee": "78057", "typo_niv3": "Haltes, escales ou ports fluviaux de plaisance", "nom_carto": "Port Saint-Nicolas"}},{"type": "Feature", "geometry": {"coordinates": [2.333590611146253, 48.8658271201059, -100000.0], "type": "Point"}, "properties": {"adresse": "25 RUE DES PYRAMIDES", "dep": "75", "geo_point_2d": [48.8658271201, 2.33359061115], "objectid": "541", "nomcom": "Paris 10EME ARRONDISSEMENT", "insee": "75101", "typo_niv3": "Offices du tourisme et syndicats d'initiative"}},{"type": "Feature", "geometry": {"coordinates": [2.69506869949597, 48.402848311643275, -100000.0], "type": "Point"}, "properties": {"adresse": "4 RUE ROYALE", "dep": "77", "geo_point_2d": [48.4028483116, 2.6950686995], "objectid": "549", "nomcom": "FONTAINEBLEAU", "insee": "77186", "typo_niv3": "Offices du tourisme et syndicats d'initiative"}},{"type": "Feature", "geometry": {"coordinates": [2.732097157643558, 48.18604469952679, -100000.0], "type": "Point"}, "properties": {"adresse": "67 AVENUE DU MARECHAL LECLERC", "dep": "77", "geo_point_2d": [48.1860446995, 2.73209715764], "objectid": "563", "nomcom": "SOUPPES SUR LOING", "insee": "77458", "typo_niv3": "Offices du tourisme et syndicats d'initiative"}},{"type": "Feature", "geometry": {"coordinates": [2.469753910040292, 48.40324065845812, -100000.0], "type": "Point"}, "properties": {"adresse": "47 RUE LANGLOIS", "dep": "91", "geo_point_2d": [48.4032406585, 2.46975391004], "objectid": "589", "nomcom": "MILLY LA FORET", "insee": "91405", "typo_niv3": "Offices du tourisme et syndicats d'initiative"}},{"type": "Feature", "geometry": {"coordinates": [2.273414131133124, 48.63911087035634, 90.30000000000291], "type": "Point"}, "properties": {"adresse": "PLACE DE L HOTEL DE VILLE BP 70204 (CEDEX)", "dep": "91", "geo_point_2d": [48.6391108704, 2.27341413113], "objectid": "591", "nomcom": "MONTLHERY", "insee": "91425", "typo_niv3": "Offices du tourisme et syndicats d'initiative"}},{"type": "Feature", "geometry": {"coordinates": [2.345620685615215, 48.679166136376715, -100000.0], "type": "Point"}, "properties": {"adresse": "48 AVENUE CHARLES DE GAULLE", "dep": "91", "geo_point_2d": [48.6791661364, 2.34562068562], "objectid": "593", "nomcom": "SAVIGNY SUR ORGE", "insee": "91589", "typo_niv3": "Offices du tourisme et syndicats d'initiative"}},{"type": "Feature", "geometry": {"coordinates": [2.222952366249725, 48.86836434079085, -100000.0], "type": "Point"}, "properties": {"adresse": "50 BOULEVARD HENRI SELLIER", "dep": "92", "geo_point_2d": [48.8683643408, 2.22295236625], "objectid": "607", "nomcom": "SURESNES", "insee": "92073", "typo_niv3": "Offices du tourisme et syndicats d'initiative"}},{"type": "Feature", "geometry": {"coordinates": [2.439328822096146, 48.90535827578258, -100000.0], "type": "Point"}, "properties": {"adresse": "125 BIS, RUE JEAN JAURES", "dep": "93", "geo_point_2d": [48.9053582758, 2.4393288221], "objectid": "608", "nomcom": "BOBIGNY", "insee": "93008", "typo_niv3": "Offices du tourisme et syndicats d'initiative"}},{"type": "Feature", "geometry": {"coordinates": [2.215843724758559, 49.11306202250533, -100000.0], "type": "Point"}, "properties": {"adresse": "RUE DES ECURIES DU ROI BP 3", "dep": "95", "geo_point_2d": [49.1130620225, 2.21584372476], "objectid": "626", "nomcom": "L ISLE ADAM", "insee": "95313", "typo_niv3": "Offices du tourisme et syndicats d'initiative"}},{"type": "Feature", "geometry": {"coordinates": [2.764784886104502, 48.879472421127076, 0.0], "type": "Point"}, "properties": {"adresse": "PLACE FRAN\u00c7OIS TRUFFAUT", "dep": "77", "geo_point_2d": [48.8794724211, 2.7647848861], "objectid": "636", "nomcom": "CHESSY", "insee": "77111", "typo_niv3": "Offices du tourisme et syndicats d'initiative"}},{"type": "Feature", "geometry": {"coordinates": [2.359426340371336, 48.728080667287884, 0.0], "type": "Point"}, "properties": {"adresse": "AEROPORT ORLY-OUEST", "dep": "91", "geo_point_2d": [48.7280806673, 2.35942634037], "objectid": "639", "nomcom": "PARAY-VIEILLE-POSTE", "insee": "91479", "typo_niv3": "Offices du tourisme et syndicats d'initiative"}},{"type": "Feature", "geometry": {"coordinates": [2.576912941854933, 49.00529606151326, 0.0], "type": "Point"}, "properties": {"adresse": "AEROPORT CDG - TERMINAL 2F", "dep": "77", "geo_point_2d": [49.0052960615, 2.57691294185], "objectid": "644", "nomcom": "LE MESNIL-AMELOT", "insee": "77291", "typo_niv3": "Offices du tourisme et syndicats d'initiative"}},{"type": "Feature", "geometry": {"coordinates": [2.251468015059413, 48.814648317444444, 0.0], "type": "Point"}, "properties": {"adresse": "19 avenue Auguste Rodin", "dep": "92", "geo_point_2d": [48.8146483174, 2.25146801506], "objectid": "647", "nomcom": "MEUDON", "insee": "92048", "typo_niv3": "Mus\u00e9e et \u00e9comus\u00e9e", "nom_carto": "Mus\u00e9e Rodin - villa des brillants"}},{"type": "Feature", "geometry": {"coordinates": [2.651857043455422, 48.54522709510426, -100000.0], "type": "Point"}, "properties": {"adresse": "Avenue du General Patton", "dep": "77", "geo_point_2d": [48.5452270951, 2.65185704346], "objectid": "653", "nomcom": "MELUN", "insee": "77288", "typo_niv3": "Espace de loisirs, espace r\u00e9cr\u00e9atif", "nom_carto": "Nolimit aventure melun"}},{"type": "Feature", "geometry": {"coordinates": [2.307718840994677, 48.88302727259807, 0.0], "type": "Point"}, "properties": {"adresse": "43 AVENUE DE VILLIERS", "dep": "75", "geo_point_2d": [48.8830272726, 2.30771884099], "objectid": "670", "nomcom": "PARIS", "insee": "75117", "typo_niv3": "Mus\u00e9e et \u00e9comus\u00e9e", "nom_carto": "Mus\u00e9e national Jean-Jacques Henner"}},{"type": "Feature", "geometry": {"coordinates": [2.51869215806968, 48.97151434144414, 0.0], "type": "Point"}, "properties": {"adresse": "ROISSY CHARLES DE GAULLE", "dep": "93", "geo_point_2d": [48.9715143414, 2.51869215807], "objectid": "1", "nomcom": "VILLEPINTE", "insee": "93078", "typo_niv3": "Centre de congr\u00e8s et parc d'exposition", "nom_carto": "Paris Nord Villepinte"}},{"type": "Feature", "geometry": {"coordinates": [2.257522637396991, 48.82497969876928, -100000.0], "type": "Point"}, "properties": {"adresse": "PARC DEPARTEMENTAL DE L'ILE Saint-GERMAIN", "dep": "92", "geo_point_2d": [48.8249796988, 2.2575226374], "objectid": "29", "nomcom": "ISSY-LES-MOULINEAUX", "insee": "92040", "typo_niv3": "Diffusion de l'art (autre que mus\u00e9e)", "nom_carto": "Tour aux figures de Jean Dubuffet"}},{"type": "Feature", "geometry": {"coordinates": [2.12381495928814, 48.72608198879447, 0.0], "type": "Point"}, "properties": {"adresse": "7-9 ROUTE DE GIF", "dep": "91", "geo_point_2d": [48.7260819888, 2.12381495929], "objectid": "45", "nomcom": "VILLERS-LE-B\u00c2CLE", "insee": "91679", "typo_niv3": "Mus\u00e9e et \u00e9comus\u00e9e", "nom_carto": "Maison atelier Foujita"}},{"type": "Feature", "geometry": {"coordinates": [2.340139737567219, 48.86187142408966, 0.0], "type": "Point"}, "properties": {"adresse": "145 RUE Saint-HONOR\u00c9", "dep": "75", "geo_point_2d": [48.8618714241, 2.34013973757], "objectid": "59", "nomcom": "Paris", "insee": "75101", "typo_niv3": "Site et monument", "nom_carto": "Eglise r\u00e9form\u00e9e de l'oratoire du Louvre"}},{"type": "Feature", "geometry": {"coordinates": [2.341355312792996, 48.86912934635037, 0.0], "type": "Point"}, "properties": {"adresse": "RUE NOTRE DAME DES VICTOIRES - PALAIS DE LA BOURSE", "dep": "75", "geo_point_2d": [48.8691293464, 2.34135531279], "objectid": "71", "nomcom": "Paris", "insee": "75102", "typo_niv3": "Site et monument", "nom_carto": "Palais de la bourse"}},{"type": "Feature", "geometry": {"coordinates": [2.362194262417415, 48.85054747920374, 0.0], "type": "Point"}, "properties": {"adresse": "21 BOULEVARD MORLAND", "dep": "75", "geo_point_2d": [48.8505474792, 2.36219426242], "objectid": "98", "nomcom": "Paris", "insee": "75104", "typo_niv3": "Site et monument", "nom_carto": "Pavillon de l'arsenal"}},{"type": "Feature", "geometry": {"coordinates": [2.357091230599838, 48.8470436930547, 0.0], "type": "Point"}, "properties": {"adresse": "RUE CUVIER", "dep": "75", "geo_point_2d": [48.8470436931, 2.3570912306], "objectid": "104", "nomcom": "Paris", "insee": "75105", "typo_niv3": "Site et monument", "nom_carto": "Universit\u00e9 de Jussieu"}},{"type": "Feature", "geometry": {"coordinates": [2.34766082130447, 48.84836335839434, 0.0], "type": "Point"}, "properties": {"adresse": "17 RUE DES CARMES", "dep": "75", "geo_point_2d": [48.8483633584, 2.3476608213], "objectid": "109", "nomcom": "Paris", "insee": "75105", "typo_niv3": "Site et monument", "nom_carto": "Eglise Saint-Ephrem"}},{"type": "Feature", "geometry": {"coordinates": [2.346573651109437, 48.83778221183349, 0.0], "type": "Point"}, "properties": {"adresse": "4 RUE FLATTERS", "dep": "75", "geo_point_2d": [48.8377822118, 2.34657365111], "objectid": "118", "nomcom": "Paris", "insee": "75105", "typo_niv3": "Mus\u00e9e et \u00e9comus\u00e9e", "nom_carto": "Mus\u00e9e des eclairages anciens"}},{"type": "Feature", "geometry": {"coordinates": [2.343690219524547, 48.85060569163545, 0.0], "type": "Point"}, "properties": {"adresse": "6 PLACE PAUL PAINLEV\u00c9", "dep": "75", "geo_point_2d": [48.8506056916, 2.34369021952], "objectid": "119", "nomcom": "Paris", "insee": "75105", "typo_niv3": "Mus\u00e9e et \u00e9comus\u00e9e", "nom_carto": "Mus\u00e9e national du moyen-age"}},{"type": "Feature", "geometry": {"coordinates": [2.337294643204323, 48.84863676531796, 0.0], "type": "Point"}, "properties": {"adresse": "15 RUE DE VAUGIRARD", "dep": "75", "geo_point_2d": [48.8486367653, 2.3372946432], "objectid": "138", "nomcom": "Paris", "insee": "75106", "typo_niv3": "Site et monument", "nom_carto": "S\u00e9nat-Palais du Luxembourg"}},{"type": "Feature", "geometry": {"coordinates": [2.310215144429883, 48.858188258311586, 0.0], "type": "Point"}, "properties": {"adresse": "51 BIS BOULEVARD DE LATOUR-MAUBOURG - H\u00d4TEL NATIONAL DES INVALIDES", "dep": "75", "geo_point_2d": [48.8581882583, 2.31021514443], "objectid": "150", "nomcom": "Paris", "insee": "75107", "typo_niv3": "Mus\u00e9e et \u00e9comus\u00e9e", "nom_carto": "Mus\u00e9e de l'ordre de la lib\u00e9ration"}},{"type": "Feature", "geometry": {"coordinates": [2.297634346381885, 48.86101339449251, 0.0], "type": "Point"}, "properties": {"adresse": "37 QUAI BRANLY - PORTAIL DEBILLY", "dep": "75", "geo_point_2d": [48.8610133945, 2.29763434638], "objectid": "154", "nomcom": "Paris", "insee": "75107", "typo_niv3": "Mus\u00e9e et \u00e9comus\u00e9e", "nom_carto": "Mus\u00e9e du quai Branly"}},{"type": "Feature", "geometry": {"coordinates": [2.315970063554669, 48.855919035022396, 0.0], "type": "Point"}, "properties": {"adresse": "79 RUE DE VARENNE - H\u00d4TEL BIRON", "dep": "75", "geo_point_2d": [48.855919035, 2.31597006355], "objectid": "162", "nomcom": "Paris", "insee": "75107", "typo_niv3": "Mus\u00e9e et \u00e9comus\u00e9e", "nom_carto": "Mus\u00e9e Rodin"}},{"type": "Feature", "geometry": {"coordinates": [2.323028652780848, 48.87370412960971, 0.0], "type": "Point"}, "properties": {"adresse": "29 RUE PASQUIER - SQUARE LOUIS XVI", "dep": "75", "geo_point_2d": [48.8737041296, 2.32302865278], "objectid": "168", "nomcom": "Paris", "insee": "75108", "typo_niv3": "Site et monument", "nom_carto": "Chapelle Expiatoire"}},{"type": "Feature", "geometry": {"coordinates": [2.333347351943861, 48.88091008179285, 0.0], "type": "Point"}, "properties": {"adresse": "16 RUE CHAPTAL - H\u00d4TEL SCHEFFER RENAN", "dep": "75", "geo_point_2d": [48.8809100818, 2.33334735194], "objectid": "185", "nomcom": "Paris", "insee": "75109", "typo_niv3": "Mus\u00e9e et \u00e9comus\u00e9e", "nom_carto": "Mus\u00e9e de la vie romantique"}},{"type": "Feature", "geometry": {"coordinates": [2.396322556474021, 48.84419464604575, 0.0], "type": "Point"}, "properties": {"adresse": "35 RUE DE PICPUS", "dep": "75", "geo_point_2d": [48.844194646, 2.39632255647], "objectid": "191", "nomcom": "Paris", "insee": "75112", "typo_niv3": "Site et monument", "nom_carto": "Cimeti\u00e8re de Picpus"}},{"type": "Feature", "geometry": {"coordinates": [2.382491592623704, 48.8374360687559, 0.0], "type": "Point"}, "properties": {"adresse": "51 RUE DE BERCY", "dep": "75", "geo_point_2d": [48.8374360688, 2.38249159262], "objectid": "192", "nomcom": "Paris", "insee": "75112", "typo_niv3": "Mus\u00e9e et \u00e9comus\u00e9e", "nom_carto": "Cin\u00e9math\u00e8que fran\u00e7aise"}},{"type": "Feature", "geometry": {"coordinates": [2.378155688099865, 48.841057401804036, 0.0], "type": "Point"}, "properties": {"adresse": "139 RUE DE BERCY", "dep": "75", "geo_point_2d": [48.8410574018, 2.3781556881], "objectid": "194", "nomcom": "Paris", "insee": "75112", "typo_niv3": "Site et monument", "nom_carto": "Minist\u00e8re des finances"}},{"type": "Feature", "geometry": {"coordinates": [2.409204831895131, 48.83504461224093, 0.0], "type": "Point"}, "properties": {"adresse": "293 AVENUE DAUMESNIL", "dep": "75", "geo_point_2d": [48.8350446122, 2.4092048319], "objectid": "196", "nomcom": "Paris", "insee": "75112", "typo_niv3": "Mus\u00e9e et \u00e9comus\u00e9e", "nom_carto": "Palais de la porte Dor\u00e9e - aquarium tropical"}},{"type": "Feature", "geometry": {"coordinates": [2.352085793905177, 48.83464347641014, 0.0], "type": "Point"}, "properties": {"adresse": "42 AVENUE DES GOBELINS", "dep": "75", "geo_point_2d": [48.8346434764, 2.35208579391], "objectid": "203", "nomcom": "Paris", "insee": "75113", "typo_niv3": "Site et monument", "nom_carto": "Manufactures nationales des Gobelins"}},{"type": "Feature", "geometry": {"coordinates": [2.392698431820368, 48.793404907866474, 0.0], "type": "Point"}, "properties": {"adresse": "18 AVENUE HENRI BARBUSSE", "dep": "94", "geo_point_2d": [48.7934049079, 2.39269843182], "objectid": "218", "nomcom": "VITRY-SUR-SEINE", "insee": "94081", "typo_niv3": "Mus\u00e9e et \u00e9comus\u00e9e", "nom_carto": "Explor@d\u00f4me"}},{"type": "Feature", "geometry": {"coordinates": [2.260053583764675, 48.845334248427854, 0.0], "type": "Point"}, "properties": {"adresse": "44 RUE MOLITOR", "dep": "75", "geo_point_2d": [48.8453342484, 2.26005358376], "objectid": "226", "nomcom": "Paris", "insee": "75116", "typo_niv3": "Site et monument", "nom_carto": "Eglise Saint-Fran\u00e7ois de Molitor"}},{"type": "Feature", "geometry": {"coordinates": [2.292895179114626, 48.86799869366008, 0.0], "type": "Point"}, "properties": {"adresse": "11 PLACE DES ETATS-UNIS", "dep": "75", "geo_point_2d": [48.8679986937, 2.29289517911], "objectid": "231", "nomcom": "Paris", "insee": "75116", "typo_niv3": "Mus\u00e9e et \u00e9comus\u00e9e", "nom_carto": "Mus\u00e9e Baccarat"}},{"type": "Feature", "geometry": {"coordinates": [2.29794113189537, 48.86472922979085, 0.0], "type": "Point"}, "properties": {"adresse": "11 AVENUE DU PR\u00c9SIDENT WILSON", "dep": "75", "geo_point_2d": [48.8647292298, 2.2979411319], "objectid": "234", "nomcom": "Paris", "insee": "75116", "typo_niv3": "Mus\u00e9e et \u00e9comus\u00e9e", "nom_carto": "Mus\u00e9e d'art moderne de la ville de Paris"}},{"type": "Feature", "geometry": {"coordinates": [2.287351878796119, 48.86181559493196, 0.0], "type": "Point"}, "properties": {"adresse": "17 PLACE DU TROCAD\u00c9RO - PALAIS DE CHAILLOT", "dep": "75", "geo_point_2d": [48.8618155949, 2.2873518788], "objectid": "239", "nomcom": "Paris", "insee": "75116", "typo_niv3": "Mus\u00e9e et \u00e9comus\u00e9e", "nom_carto": "Mus\u00e9e national de la marine"}},{"type": "Feature", "geometry": {"coordinates": [2.343402147008772, 48.88717791943479, 0.0], "type": "Point"}, "properties": {"adresse": "35 RUE DU CHEVALIER-DE-LA-BARRE - PARVIS DU SACR\u00c9 COEUR", "dep": "75", "geo_point_2d": [48.8871779194, 2.34340214701], "objectid": "246", "nomcom": "Paris", "insee": "75118", "typo_niv3": "Site et monument", "nom_carto": "Basilique du sacr\u00e9-coeur de Montmartre"}},{"type": "Feature", "geometry": {"coordinates": [3.290095028152269, 48.56136220509163, 0.0], "type": "Point"}, "properties": {"adresse": "RUE DE LA PIE", "dep": "77", "geo_point_2d": [48.5613622051, 3.29009502815], "objectid": "283", "nomcom": "PROVINS", "insee": "77379", "typo_niv3": "Site et monument", "nom_carto": "Tour C\u00e9sar  - cite medievale de Provins"}},{"type": "Feature", "geometry": {"coordinates": [1.817512779185931, 48.645521782287986, 0.0], "type": "Point"}, "properties": {"adresse": "DOMAINE NATIONAL DU Ch\u00e2teau DE RAMBOUILLET", "dep": "78", "geo_point_2d": [48.6455217823, 1.81751277919], "objectid": "300", "nomcom": "RAMBOUILLET", "insee": "78517", "typo_niv3": "Site et monument", "nom_carto": "Ch\u00e2teau de Rambouillet"}},{"type": "Feature", "geometry": {"coordinates": [1.822352229353227, 48.64467829257143, 0.0], "type": "Point"}, "properties": {"adresse": "RUE DU G\u00c9N\u00c9RAL DE GAULLE - PLACE DU ROI DE ROME", "dep": "78", "geo_point_2d": [48.6446782926, 1.82235222935], "objectid": "301", "nomcom": "RAMBOUILLET", "insee": "78517", "typo_niv3": "Mus\u00e9e et \u00e9comus\u00e9e", "nom_carto": "Mus\u00e9e du jeu de l'oie"}},{"type": "Feature", "geometry": {"coordinates": [2.113391024401484, 48.819083194514356, 0.0], "type": "Point"}, "properties": {"adresse": "RP 834", "dep": "78", "geo_point_2d": [48.8190831945, 2.1133910244], "objectid": "313", "nomcom": "VERSAILLES", "insee": "78646", "typo_niv3": "Site et monument", "nom_carto": "Domaine de Marie-Antoinette"}},{"type": "Feature", "geometry": {"coordinates": [2.011194940618992, 48.529878159373744, 0.0], "type": "Point"}, "properties": {"adresse": "PLACE DU G\u00c9N\u00c9RAL DE GAULLE", "dep": "91", "geo_point_2d": [48.5298781594, 2.01119494062], "objectid": "323", "nomcom": "DOURDAN", "insee": "91200", "typo_niv3": "Mus\u00e9e et \u00e9comus\u00e9e", "nom_carto": "Mus\u00e9e du chateau de dourdan"}},{"type": "Feature", "geometry": {"coordinates": [2.163993500147619, 48.661882804475454, 0.0], "type": "Point"}, "properties": {"adresse": "DOMAINE DE Saint-JEAN-DE-BEAUREGARD", "dep": "91", "geo_point_2d": [48.6618828045, 2.16399350015], "objectid": "329", "nomcom": "Saint-JEAN-DE-BEAUREGARD", "insee": "91560", "typo_niv3": "Site et monument", "nom_carto": "Domaine de Saint-Jean de Beauregard"}},{"type": "Feature", "geometry": {"coordinates": [2.496309008571588, 48.474791299397836, 0.0], "type": "Point"}, "properties": {"adresse": "LE MOULIN DES NOUES", "dep": "91", "geo_point_2d": [48.4747912994, 2.49630900857], "objectid": "330", "nomcom": "SOISY-SUR-ECOLE", "insee": "91599", "typo_niv3": "Mus\u00e9e et \u00e9comus\u00e9e", "nom_carto": "Verrerie d'art de Soisy-sur-Ecole"}},{"type": "Feature", "geometry": {"coordinates": [2.226864489363401, 48.841170181211275, 0.0], "type": "Point"}, "properties": {"adresse": "14 RUE DU PORT", "dep": "92", "geo_point_2d": [48.8411701812, 2.22686448936], "objectid": "332", "nomcom": "BOULOGNE-BILLANCOURT", "insee": "92012", "typo_niv3": "Mus\u00e9e et \u00e9comus\u00e9e", "nom_carto": "Mus\u00e9e d\u00e9partemental Albert Kahn"}},{"type": "Feature", "geometry": {"coordinates": [2.241921712711146, 48.89142036753691, 0.0], "type": "Point"}, "properties": {"adresse": "15 PLACE DE LA D\u00c9FENSE - ESPACE INFO-D\u00c9FENSE", "dep": "92", "geo_point_2d": [48.8914203675, 2.24192171271], "objectid": "335", "nomcom": "Paris-LA DEFENSE", "insee": "92026", "typo_niv3": "Mus\u00e9e et \u00e9comus\u00e9e", "nom_carto": "Mus\u00e9e de la D\u00e9fense"}},{"type": "Feature", "geometry": {"coordinates": [2.101861849383182, 49.047087390682165, 0.0], "type": "Point"}, "properties": {"dep": "95", "geo_point_2d": [49.0470873907, 2.10186184938], "objectid": "336", "nomcom": "PONTOISE", "insee": "95500", "typo_niv3": "Haltes, escales ou ports fluviaux de plaisance", "nom_carto": "Pontoise  halte nautique"}},{"type": "Feature", "geometry": {"coordinates": [2.169085244258448, 48.87169840378636, 0.0], "type": "Point"}, "properties": {"adresse": "AVENUE DU Ch\u00e2teau DE MALMAISON", "dep": "92", "geo_point_2d": [48.8716984038, 2.16908524426], "objectid": "341", "nomcom": "RUEIL-MALMAISON", "insee": "92063", "typo_niv3": "Mus\u00e9e et \u00e9comus\u00e9e", "nom_carto": "Mus\u00e9e national des Ch\u00e2teaux de Malmaison et Bois-Pr\u00e9au"}},{"type": "Feature", "geometry": {"coordinates": [2.421040403462837, 48.8148312002975, 0.0], "type": "Point"}, "properties": {"adresse": "7 AVENUE DU G\u00c9N\u00c9RAL DE GAULLE", "dep": "94", "geo_point_2d": [48.8148312003, 2.42104040346], "objectid": "356", "nomcom": "MAISONS-ALFORT", "insee": "94046", "typo_niv3": "Site et monument", "nom_carto": "Ecole nationale v\u00e9t\u00e9rinaire de Maisons-Alfort"}},{"type": "Feature", "geometry": {"coordinates": [2.176336179909594, 49.07186192732248, 0.0], "type": "Point"}, "properties": {"adresse": "RUE DAUBIGNY - PAROISSE ND", "dep": "95", "geo_point_2d": [49.0718619273, 2.17633617991], "objectid": "361", "nomcom": "AUVERS-SUR-OISE", "insee": "95039", "typo_niv3": "Site et monument", "nom_carto": "Eglise ND d'Auvers"}},{"type": "Feature", "geometry": {"coordinates": [2.183249657629533, 49.107209159764906, 0.0], "type": "Point"}, "properties": {"adresse": "RUE DU MOULIN MOREL", "dep": "95", "geo_point_2d": [49.1072091598, 2.18324965763], "objectid": "374", "nomcom": "VALMONDOIS", "insee": "95628", "typo_niv3": "Mus\u00e9e et \u00e9comus\u00e9e", "nom_carto": "Maison de la Meunerie"}},{"type": "Feature", "geometry": {"coordinates": [2.263928932197786, 48.87816896068404, 0.0], "type": "Point"}, "properties": {"adresse": "BOIS DE BOULOGNE", "dep": "75", "geo_point_2d": [48.8781689607, 2.2639289322], "objectid": "385", "nomcom": "Paris", "insee": "75116", "typo_niv3": "Espace de loisirs, espace r\u00e9cr\u00e9atif", "nom_carto": "Jardin d'Accimatation"}},{"type": "Feature", "geometry": {"coordinates": [2.446998409508711, 48.78031852860929, 0.0], "type": "Point"}, "properties": {"adresse": "RUE JEAN GABIN", "dep": "94", "geo_point_2d": [48.7803185286, 2.44699840951], "objectid": "390", "nomcom": "CRETEIL", "insee": "94028", "typo_niv3": "Espace de loisirs, espace r\u00e9cr\u00e9atif", "nom_carto": "Ile de loisirs de Cr\u00e9teil"}},{"type": "Feature", "geometry": {"coordinates": [1.677324130158425, 49.06216519216069, 0.0], "type": "Point"}, "properties": {"adresse": "MOISSON", "dep": "78", "geo_point_2d": [49.0621651922, 1.67732413016], "objectid": "406", "nomcom": "MOISSON", "insee": "78410", "typo_niv3": "Espace de loisirs, espace r\u00e9cr\u00e9atif", "nom_carto": "Ile de loisirs des Boucles de Seine"}},{"type": "Feature", "geometry": {"coordinates": [2.335041200099353, 48.776261378576294, 0.0], "type": "Point"}, "properties": {"adresse": "RUE ALBERT WATEL", "dep": "94", "geo_point_2d": [48.7762613786, 2.3350412001], "objectid": "418", "nomcom": "L'HA\u0178-LES-ROSES", "insee": "94038", "typo_niv3": "Espace de loisirs, espace r\u00e9cr\u00e9atif", "nom_carto": "Roseraie du Val-de-Marne\r\nroseraie du val-de-marne (17)\r\nroseraie du *"}},{"type": "Feature", "geometry": {"coordinates": [2.269784045860179, 48.77410959498368, 0.0], "type": "Point"}, "properties": {"adresse": "34 RUE EUG\u00c8NE SINET", "dep": "92", "geo_point_2d": [48.774109595, 2.26978404586], "objectid": "419", "nomcom": "CH\u00c2TENAY-MALABRY", "insee": "92019", "typo_niv3": "Espace de loisirs, espace r\u00e9cr\u00e9atif", "nom_carto": "L'ile  verte"}},{"type": "Feature", "geometry": {"coordinates": [2.269616855670695, 48.87773107016975, 0.0], "type": "Point"}, "properties": {"adresse": "JARDIN D'ACCLIMATATION - BOIS DE BOULOGNE", "dep": "75", "geo_point_2d": [48.8777310702, 2.26961685567], "objectid": "427", "nomcom": "Paris", "insee": "75116", "typo_niv3": "Mus\u00e9e et \u00e9comus\u00e9e", "nom_carto": "Mus\u00e9e en herbe"}},{"type": "Feature", "geometry": {"coordinates": [2.378658309321282, 48.83386286594929, 0.0], "type": "Point"}, "properties": {"adresse": "ESCALE DE LA GARE", "dep": "75", "geo_point_2d": [48.8338628659, 2.37865830932], "objectid": "433", "nomcom": "Paris", "insee": "75112", "typo_niv3": "Haltes, escales ou ports fluviaux de plaisance", "nom_carto": "Escale de la gare biblioth\u00e8que"}},{"type": "Feature", "geometry": {"coordinates": [2.344396620055738, 48.85431079170427, 0.0], "type": "Point"}, "properties": {"adresse": "ESCALE NOTRE DAME - Saint MICHEL", "dep": "75", "geo_point_2d": [48.8543107917, 2.34439662006], "objectid": "435", "nomcom": "Paris", "insee": "75104", "typo_niv3": "Haltes, escales ou ports fluviaux de plaisance", "nom_carto": "Escale ND, Saint-Michel"}},{"type": "Feature", "geometry": {"coordinates": [1.699933498957463, 49.06271471019917, 0.0], "type": "Point"}, "properties": {"adresse": "ESCALE DE V\u00c9THEUIL", "dep": "95", "geo_point_2d": [49.0627147102, 1.69993349896], "objectid": "444", "nomcom": "VETHEUIL", "insee": "95651", "typo_niv3": "Haltes, escales ou ports fluviaux de plaisance", "nom_carto": "Escale de V\u00e9theuil"}},{"type": "Feature", "geometry": {"coordinates": [2.296365036338872, 48.86193093846609, 0.0], "type": "Point"}, "properties": {"dep": "75", "geo_point_2d": [48.8619309385, 2.29636503634], "objectid": "460", "nomcom": "Paris", "insee": "75107", "typo_niv3": "Haltes, escales ou ports fluviaux de plaisance", "nom_carto": "Escale Bourdonnais, mus\u00e9e du quai Branly"}},{"type": "Feature", "geometry": {"coordinates": [2.652540933695136, 48.53726440257469, 0.0], "type": "Point"}, "properties": {"dep": "77", "geo_point_2d": [48.5372644026, 2.6525409337], "objectid": "469", "nomcom": "MELUN", "insee": "77288", "typo_niv3": "Haltes, escales ou ports fluviaux de plaisance", "nom_carto": "Escale melun, port de la reine Blanche"}},{"type": "Feature", "geometry": {"coordinates": [2.631102990937145, 48.52805336326642, 0.0], "type": "Point"}, "properties": {"adresse": "40, CHEMIN DES PRAILLONS", "dep": "77", "geo_point_2d": [48.5280533633, 2.63110299094], "objectid": "478", "nomcom": "BOISSETTES", "insee": "77038", "typo_niv3": "Haltes, escales ou ports fluviaux de plaisance", "nom_carto": "Port Saint-Jacques"}},{"type": "Feature", "geometry": {"coordinates": [2.367710375155713, 48.850043579738845, 0.0], "type": "Point"}, "properties": {"adresse": "11 BOULEVARD DE LA BASTILLE", "dep": "75", "geo_point_2d": [48.8500435797, 2.36771037516], "objectid": "488", "nomcom": "Paris", "insee": "75112", "typo_niv3": "Haltes, escales ou ports fluviaux de plaisance", "nom_carto": "Port de l'Arsenal"}},{"type": "Feature", "geometry": {"coordinates": [2.71922383454097, 48.88216641913775, 0.0], "type": "Point"}, "properties": {"adresse": "109 QUAI DE LA GOURDINE", "dep": "77", "geo_point_2d": [48.8821664191, 2.71922383454], "objectid": "499", "nomcom": "LAGNY-SUR-MARNE", "insee": "77243", "typo_niv3": "Haltes, escales ou ports fluviaux de plaisance", "nom_carto": "Port de Lagny-sur-Marne"}},{"type": "Feature", "geometry": {"coordinates": [2.939341118906551, 48.9735781232584, 0.0], "type": "Point"}, "properties": {"adresse": "ROUTE DU MOULIN DE POINCY", "dep": "77", "geo_point_2d": [48.9735781233, 2.93934111891], "objectid": "504", "nomcom": "POINCY", "insee": "77369", "typo_niv3": "Haltes, escales ou ports fluviaux de plaisance", "nom_carto": "Port priv\u00e9 du cercle nautique Poincy"}},{"type": "Feature", "geometry": {"coordinates": [1.722653114526018, 48.996641585205744, 0.0], "type": "Point"}, "properties": {"adresse": "41 QUAI AUX VINS", "dep": "78", "geo_point_2d": [48.9966415852, 1.72265311453], "objectid": "515", "nomcom": "LIMAY", "insee": "78335", "typo_niv3": "Haltes, escales ou ports fluviaux de plaisance", "nom_carto": "Marines de Limay"}},{"type": "Feature", "geometry": {"coordinates": [2.037807105825378, 48.93332749763922, 0.0], "type": "Point"}, "properties": {"adresse": "132 RUE DU G\u00c9N\u00c9RAL DE GAULLE", "dep": "78", "geo_point_2d": [48.9333274976, 2.03780710583], "objectid": "516", "nomcom": "POISSY", "insee": "78498", "typo_niv3": "Haltes, escales ou ports fluviaux de plaisance", "nom_carto": "Halte de Poissy"}},{"type": "Feature", "geometry": {"coordinates": [2.491175302630209, 48.83193183698385, 0.0], "type": "Point"}, "properties": {"adresse": "8 RUE DU PORT", "dep": "94", "geo_point_2d": [48.831931837, 2.49117530263], "objectid": "532", "nomcom": "NOGENT-SUR-MARNE", "insee": "94052", "typo_niv3": "Haltes, escales ou ports fluviaux de plaisance", "nom_carto": "Port de plaisance de Nogent-sur-Marne"}},{"type": "Feature", "geometry": {"coordinates": [2.176009613191368, 48.97720331027585, 0.0], "type": "Point"}, "properties": {"adresse": "55 QUAI DE LA SEINE", "dep": "95", "geo_point_2d": [48.9772033103, 2.17600961319], "objectid": "536", "nomcom": "LA FRETTE-SUR-SEINE", "insee": "95257", "typo_niv3": "Haltes, escales ou ports fluviaux de plaisance", "nom_carto": "Halte de plaisance de la Frette"}},{"type": "Feature", "geometry": {"coordinates": [2.21186823050389, 49.1120644394204, 0.0], "type": "Point"}, "properties": {"adresse": "CHEMIN DU HALAGE", "dep": "95", "geo_point_2d": [49.1120644394, 2.2118682305], "objectid": "537", "nomcom": "L'ISLE ADAM", "insee": "95313", "typo_niv3": "Haltes, escales ou ports fluviaux de plaisance", "nom_carto": "Halte de l'Isle - Adam"}},{"type": "Feature", "geometry": {"coordinates": [2.109013398323627, 48.8940130608213, 0.0], "type": "Point"}, "properties": {"dep": "78", "geo_point_2d": [48.8940130608, 2.10901339832], "objectid": "539", "nomcom": "LE PECQ", "insee": "78481", "typo_niv3": "Haltes, escales ou ports fluviaux de plaisance", "nom_carto": "Zone porturaire du Pecq"}},{"type": "Feature", "geometry": {"coordinates": [2.717133742338831, 48.34287510209406, -100000.0], "type": "Point"}, "properties": {"adresse": "37 RUE MURGER", "dep": "77", "geo_point_2d": [48.3428751021, 2.71713374234], "objectid": "543", "nomcom": "BOURRON MARLOTTE", "insee": "77048", "typo_niv3": "Offices du tourisme et syndicats d'initiative"}},{"type": "Feature", "geometry": {"coordinates": [3.022582250009497, 49.02464110677052, -100000.0], "type": "Point"}, "properties": {"adresse": "43 RUE JEAN JAURES", "dep": "77", "geo_point_2d": [49.0246411068, 3.02258225001], "objectid": "554", "nomcom": "LIZY SUR OURCQ", "insee": "77257", "typo_niv3": "Offices du tourisme et syndicats d'initiative"}},{"type": "Feature", "geometry": {"coordinates": [2.877776508133888, 48.96170745211032, -100000.0], "type": "Point"}, "properties": {"adresse": "1 PLACE DOUMER", "dep": "77", "geo_point_2d": [48.9617074521, 2.87777650813], "objectid": "555", "nomcom": "MEAUX", "insee": "77284", "typo_niv3": "Offices du tourisme et syndicats d'initiative"}},{"type": "Feature", "geometry": {"coordinates": [2.660299814492588, 48.539637297540814, -100000.0], "type": "Point"}, "properties": {"adresse": "18 RUE PAUL DOUMER", "dep": "77", "geo_point_2d": [48.5396372975, 2.66029981449], "objectid": "556", "nomcom": "MELUN", "insee": "77288", "typo_niv3": "Offices du tourisme et syndicats d'initiative"}},{"type": "Feature", "geometry": {"coordinates": [2.543880933003632, 48.530192524660855, -100000.0], "type": "Point"}, "properties": {"adresse": "71 AVENUE DE FONTAINEBLEAU", "dep": "77", "geo_point_2d": [48.5301925247, 2.543880933], "objectid": "562", "nomcom": "ST FARGEAU PONTHIERRY", "insee": "77407", "typo_niv3": "Offices du tourisme et syndicats d'initiative"}},{"type": "Feature", "geometry": {"coordinates": [1.80696750255528, 48.777208037814326, -100000.0], "type": "Point"}, "properties": {"adresse": "3 RUE AMAURY", "dep": "78", "geo_point_2d": [48.7772080378, 1.80696750256], "objectid": "572", "nomcom": "MONTFORT L AMAURY", "insee": "78420", "typo_niv3": "Offices du tourisme et syndicats d'initiative"}},{"type": "Feature", "geometry": {"coordinates": [2.482588861225765, 48.61271364682875, -100000.0], "type": "Point"}, "properties": {"adresse": "11 PLACE DU COMTE HAYMON", "dep": "91", "geo_point_2d": [48.6127136468, 2.48258886123], "objectid": "584", "nomcom": "CORBEIL ESSONNES", "insee": "91174", "typo_niv3": "Offices du tourisme et syndicats d'initiative"}},{"type": "Feature", "geometry": {"coordinates": [2.185134983124985, 48.699142930423356, -100000.0], "type": "Point"}, "properties": {"adresse": "17, RUE DE L YVETTE", "dep": "91", "geo_point_2d": [48.6991429304, 2.18513498312], "objectid": "592", "nomcom": "ORSAY", "insee": "91471", "typo_niv3": "Offices du tourisme et syndicats d'initiative"}},{"type": "Feature", "geometry": {"coordinates": [2.266884375557501, 48.74634047297564, -100000.0], "type": "Point"}, "properties": {"adresse": "PLACE CHARLES DE GAULLE \n/ VILLA SaintE CHRISTINE", "dep": "91", "geo_point_2d": [48.746340473, 2.26688437556], "objectid": "594", "nomcom": "VERRIERES LE BUISSON", "insee": "91645", "typo_niv3": "Offices du tourisme et syndicats d'initiative"}},{"type": "Feature", "geometry": {"coordinates": [2.292958763807406, 48.910794257987966, -100000.0], "type": "Point"}, "properties": {"adresse": "9 RUE DE L EGLISE (MAISON DU TOURISME ET DES PROJETS)", "dep": "92", "geo_point_2d": [48.910794258, 2.29295876381], "objectid": "596", "nomcom": "ASNIERES SUR SEINE", "insee": "92004", "typo_niv3": "Offices du tourisme et syndicats d'initiative"}},{"type": "Feature", "geometry": {"coordinates": [2.315970003876483, 48.779163988542635, -100000.0], "type": "Point"}, "properties": {"adresse": "1 BOULEVARD CARNOT", "dep": "92", "geo_point_2d": [48.7791639885, 2.31597000388], "objectid": "598", "nomcom": "BOURG LA REINE", "insee": "92014", "typo_niv3": "Offices du tourisme et syndicats d'initiative"}},{"type": "Feature", "geometry": {"coordinates": [2.29734387947767, 48.93353655942628, -100000.0], "type": "Point"}, "properties": {"adresse": "58 RUE PIERRE TIMBAUD", "dep": "92", "geo_point_2d": [48.9335365594, 2.29734387948], "objectid": "602", "nomcom": "GENNEVILLIERS", "insee": "92036", "typo_niv3": "Offices du tourisme et syndicats d'initiative"}},{"type": "Feature", "geometry": {"coordinates": [2.195024481218846, 48.88998449274817, -100000.0], "type": "Point"}, "properties": {"adresse": "4 RUE DU MARCHE", "dep": "92", "geo_point_2d": [48.8899844927, 2.19502448122], "objectid": "604", "nomcom": "NANTERRE", "insee": "92050", "typo_niv3": "Offices du tourisme et syndicats d'initiative"}},{"type": "Feature", "geometry": {"coordinates": [2.295385619222623, 48.77728869746107, -100000.0], "type": "Point"}, "properties": {"adresse": "70 RUE DE HOUDAN", "dep": "92", "geo_point_2d": [48.7772886975, 2.29538561922], "objectid": "606", "nomcom": "SCEAUX", "insee": "92071", "typo_niv3": "Offices du tourisme et syndicats d'initiative"}},{"type": "Feature", "geometry": {"coordinates": [2.481928360938236, 48.854245621375505, -100000.0], "type": "Point"}, "properties": {"adresse": "4 BIS AVENUE CHARLES GARCIA", "dep": "94", "geo_point_2d": [48.8542456214, 2.48192836094], "objectid": "618", "nomcom": "FONTENAY SOUS BOIS", "insee": "94033", "typo_niv3": "Offices du tourisme et syndicats d'initiative"}},{"type": "Feature", "geometry": {"coordinates": [2.567009795976123, 49.00461836880213, 0.0], "type": "Point"}, "properties": {"adresse": "AEROPORT CDG - TERMINAL 2D", "dep": "93", "geo_point_2d": [49.0046183688, 2.56700979598], "objectid": "642", "nomcom": "TREMBLAY-EN-FRANCE", "insee": "93073", "typo_niv3": "Offices du tourisme et syndicats d'initiative"}},{"type": "Feature", "geometry": {"coordinates": [2.46152168718339, 48.82002041189975, -100000.0], "type": "Point"}, "properties": {"adresse": "118 route Pyramide", "dep": "75", "geo_point_2d": [48.8200204119, 2.46152168718], "objectid": "658", "nomcom": "Paris", "insee": "75112", "typo_niv3": "Espace de loisirs, espace r\u00e9cr\u00e9atif", "nom_carto": "Evasion verte"}},{"type": "Feature", "geometry": {"coordinates": [2.353341976664557, 48.85745437127213, 0.0], "type": "Point"}, "properties": {"adresse": "52 rue de Rivoli", "dep": "75", "geo_point_2d": [48.8574543713, 2.35334197666], "objectid": "662", "nomcom": "Paris", "insee": "75104", "typo_niv3": "Espace de loisirs, espace r\u00e9cr\u00e9atif", "nom_carto": "Bazar de l'h\u00f4tel de ville"}},{"type": "Feature", "geometry": {"coordinates": [2.444726037616001, 48.83574400136083, 0.0], "type": "Point"}, "properties": {"adresse": "ESPLANADE DU CH\u00c2TEAU DE VINCENNES, 75012 PARIS", "dep": "75", "geo_point_2d": [48.8357440014, 2.44472603762], "objectid": "14", "nomcom": "PARIS", "insee": "75112", "typo_niv3": "Centre de congr\u00e8s et parc d'exposition", "nom_carto": "PARC FLORAL DE PARIS"}},{"type": "Feature", "geometry": {"coordinates": [2.35726623352057, 48.74323284308098, 0.0], "type": "Point"}, "properties": {"adresse": "47, RUE DES SOLETS, PARC SILIC, 94533 RUNGIS CEDEX", "dep": "94", "geo_point_2d": [48.7432328431, 2.35726623352], "objectid": "16", "nomcom": "RUNGIS", "insee": "94065", "typo_niv3": "Centre de congr\u00e8s et parc d'exposition", "nom_carto": "ESPACE JEAN MONET"}},{"type": "Feature", "geometry": {"coordinates": [2.396413749503906, 48.83289882040331, 0.0], "type": "Point"}, "properties": {"adresse": "327, RUE DE CHARENTON, 75012 PARIS", "dep": "75", "geo_point_2d": [48.8328988204, 2.3964137495], "objectid": "18", "nomcom": "PARIS", "insee": "75112", "typo_niv3": "Centre de congr\u00e8s et parc d'exposition", "nom_carto": "ESPACE CHARENTON"}},{"type": "Feature", "geometry": {"coordinates": [2.816451936121622, 48.373054582326006, 0.0], "type": "Point"}, "properties": {"adresse": "MOULIN PROVENCHER", "dep": "77", "geo_point_2d": [48.3730545823, 2.81645193612], "objectid": "41", "nomcom": "MORET-SUR-LOING", "insee": "77316", "typo_niv3": "Mus\u00e9e et \u00e9comus\u00e9e", "nom_carto": "Musee du sucre d'Orge des religieuses"}},{"type": "Feature", "geometry": {"coordinates": [2.200612639293016, 48.75694589472159, 0.0], "type": "Point"}, "properties": {"adresse": "45 RUE DE VAUBOYEN", "dep": "91", "geo_point_2d": [48.7569458947, 2.20061263929], "objectid": "46", "nomcom": "BIEVRES", "insee": "91064", "typo_niv3": "Mus\u00e9e et \u00e9comus\u00e9e", "nom_carto": "Maison Victor Hugo"}},{"type": "Feature", "geometry": {"coordinates": [2.34519757480894, 48.86336884679099, 0.0], "type": "Point"}, "properties": {"adresse": "2 IMPASSE Saint-EUSTACHE", "dep": "75", "geo_point_2d": [48.8633688468, 2.34519757481], "objectid": "60", "nomcom": "Paris", "insee": "75101", "typo_niv3": "Site et monument", "nom_carto": "Eglise Saint-Eustache"}},{"type": "Feature", "geometry": {"coordinates": [2.328379940020929, 48.869652046439896, 0.0], "type": "Point"}, "properties": {"adresse": "39 BOULEVARD DES CAPUCINES", "dep": "75", "geo_point_2d": [48.8696520464, 2.32837994002], "objectid": "72", "nomcom": "Paris", "insee": "75102", "typo_niv3": "Mus\u00e9e et \u00e9comus\u00e9e", "nom_carto": "Th\u00e9\u00e2tre mus\u00e9e des Capucines"}},{"type": "Feature", "geometry": {"coordinates": [2.353788843085212, 48.86146593789317, 0.0], "type": "Point"}, "properties": {"adresse": "22 RUE BEAUBOURG - IMPASSE BERTHAUD", "dep": "75", "geo_point_2d": [48.8614659379, 2.35378884309], "objectid": "81", "nomcom": "Paris", "insee": "75103", "typo_niv3": "Mus\u00e9e et \u00e9comus\u00e9e", "nom_carto": "Mus\u00e9e de la poup\u00e9e - Paris"}},{"type": "Feature", "geometry": {"coordinates": [2.362098628256093, 48.85985181705871, 0.0], "type": "Point"}, "properties": {"adresse": "5 RUE DE THORIGNY - H\u00d4TEL SAL\u00c9", "dep": "75", "geo_point_2d": [48.8598518171, 2.36209862826], "objectid": "83", "nomcom": "Paris", "insee": "75103", "typo_niv3": "Mus\u00e9e et \u00e9comus\u00e9e", "nom_carto": "Mus\u00e9e national Picasso"}},{"type": "Feature", "geometry": {"coordinates": [2.36120107746986, 48.85315411297971, 0.0], "type": "Point"}, "properties": {"adresse": "11 RUE Saint-PAUL", "dep": "75", "geo_point_2d": [48.853154113, 2.36120107747], "objectid": "96", "nomcom": "Paris", "insee": "75104", "typo_niv3": "Mus\u00e9e et \u00e9comus\u00e9e", "nom_carto": "Mus\u00e9e de la magie"}},{"type": "Feature", "geometry": {"coordinates": [2.350347926721569, 48.853257027235884, 0.0], "type": "Point"}, "properties": {"adresse": "10 RUE DU CLO\u00ceTRE ND", "dep": "75", "geo_point_2d": [48.8532570272, 2.35034792672], "objectid": "97", "nomcom": "Paris", "insee": "75104", "typo_niv3": "Mus\u00e9e et \u00e9comus\u00e9e", "nom_carto": "Mus\u00e9e de ND de Paris"}},{"type": "Feature", "geometry": {"coordinates": [2.36386477210537, 48.85118166960617, 0.0], "type": "Point"}, "properties": {"adresse": "18 BOULEVARD HENRI IV - QUARTIER DES C\u00c9LESTINS", "dep": "75", "geo_point_2d": [48.8511816696, 2.36386477211], "objectid": "99", "nomcom": "Paris", "insee": "75104", "typo_niv3": "Site et monument", "nom_carto": "Salle d'honneur et de traditions de la garde r\u00e9publicaine"}},{"type": "Feature", "geometry": {"coordinates": [2.34569246153843, 48.85209884969987, 0.0], "type": "Point"}, "properties": {"adresse": "1 RUE DES PR\u00caTRES-Saint-S\u00c9VERIN", "dep": "75", "geo_point_2d": [48.8520988497, 2.34569246154], "objectid": "112", "nomcom": "Paris", "insee": "75105", "typo_niv3": "Site et monument", "nom_carto": "Eglise Saint-S\u00e9verin"}},{"type": "Feature", "geometry": {"coordinates": [2.335000020106997, 48.85222746497299, 0.0], "type": "Point"}, "properties": {"adresse": "10 RUE MABILLON", "dep": "75", "geo_point_2d": [48.852227465, 2.33500002011], "objectid": "136", "nomcom": "Paris", "insee": "75106", "typo_niv3": "Mus\u00e9e et \u00e9comus\u00e9e", "nom_carto": "Mus\u00e9e-librairie du compagnonnage"}},{"type": "Feature", "geometry": {"coordinates": [2.324859079314455, 48.854731386605614, 0.0], "type": "Point"}, "properties": {"adresse": "59-61 RUE DE GRENELLE - FONDATION DINA VIERNY", "dep": "75", "geo_point_2d": [48.8547313866, 2.32485907931], "objectid": "155", "nomcom": "Paris", "insee": "75107", "typo_niv3": "Mus\u00e9e et \u00e9comus\u00e9e", "nom_carto": "Mus\u00e9e Maillol"}},{"type": "Feature", "geometry": {"coordinates": [2.324441092863117, 48.87004807273671, 0.0], "type": "Point"}, "properties": {"adresse": "14 RUE DE SUR\u00c8NE - PLACE DE LA MADELEINE", "dep": "75", "geo_point_2d": [48.8700480727, 2.32444109286], "objectid": "170", "nomcom": "Paris", "insee": "75108", "typo_niv3": "Site et monument", "nom_carto": "Eglise de la Madeleine"}},{"type": "Feature", "geometry": {"coordinates": [2.322397437563407, 48.86664053664115, 0.0], "type": "Point"}, "properties": {"adresse": "1 PLACE DE LA CONCORDE", "dep": "75", "geo_point_2d": [48.8666405366, 2.32239743756], "objectid": "172", "nomcom": "Paris", "insee": "75108", "typo_niv3": "Site et monument", "nom_carto": "Jeu de paume - site Concorde"}},{"type": "Feature", "geometry": {"coordinates": [2.331196633292662, 48.87187562201233, 0.0], "type": "Point"}, "properties": {"adresse": "PLACE DE L'OP\u00c9RA", "dep": "75", "geo_point_2d": [48.871875622, 2.33119663329], "objectid": "180", "nomcom": "Paris", "insee": "75109", "typo_niv3": "Mus\u00e9e et \u00e9comus\u00e9e", "nom_carto": "Mus\u00e9e de l'op\u00e9ra national"}},{"type": "Feature", "geometry": {"coordinates": [2.382194068132254, 48.85860444305182, 0.0], "type": "Point"}, "properties": {"adresse": "7 RUE PACHE", "dep": "75", "geo_point_2d": [48.8586044431, 2.38219406813], "objectid": "189", "nomcom": "Paris", "insee": "75111", "typo_niv3": "Mus\u00e9e et \u00e9comus\u00e9e", "nom_carto": "Mus\u00e9e du fumeur"}},{"type": "Feature", "geometry": {"coordinates": [2.331859883288804, 48.833990942386635, 0.0], "type": "Point"}, "properties": {"adresse": "1 AVENUE DU COLONEL HENRI ROL-TANGUY", "dep": "75", "geo_point_2d": [48.8339909424, 2.33185988329], "objectid": "204", "nomcom": "Paris", "insee": "75114", "typo_niv3": "Mus\u00e9e et \u00e9comus\u00e9e", "nom_carto": "Catacombes de Paris"}},{"type": "Feature", "geometry": {"coordinates": [2.320699632112336, 48.8437123958741, 0.0], "type": "Point"}, "properties": {"adresse": "21 AVENUE DU MAINE", "dep": "75", "geo_point_2d": [48.8437123959, 2.32069963211], "objectid": "216", "nomcom": "Paris", "insee": "75115", "typo_niv3": "Mus\u00e9e et \u00e9comus\u00e9e", "nom_carto": "Mus\u00e9e du montparnasse"}},{"type": "Feature", "geometry": {"coordinates": [2.289009556890059, 48.862933214462814, 0.0], "type": "Point"}, "properties": {"adresse": "PALAIS DE CHAILLOT - ACC\u00c8S PI\u00c9TONS : 7 AVENUE ALBERT DE MUN", "dep": "75", "geo_point_2d": [48.8629332145, 2.28900955689], "objectid": "221", "nomcom": "Paris", "insee": "75116", "typo_niv3": "Mus\u00e9e et \u00e9comus\u00e9e", "nom_carto": "Cit\u00e9 de l'architecture et du patrimoine"}},{"type": "Feature", "geometry": {"coordinates": [2.279907665294383, 48.85627553655561, 0.0], "type": "Point"}, "properties": {"adresse": "4/10 RUE DE L'ANNONCIATION", "dep": "75", "geo_point_2d": [48.8562755366, 2.27990766529], "objectid": "223", "nomcom": "Paris", "insee": "75116", "typo_niv3": "Site et monument", "nom_carto": "Eglise de ND-de-grace-de-Passy"}},{"type": "Feature", "geometry": {"coordinates": [2.29893053513479, 48.86573341442497, 0.0], "type": "Point"}, "properties": {"adresse": "3 RUE L\u00c9ONCE REYNAUD", "dep": "75", "geo_point_2d": [48.8657334144, 2.29893053513], "objectid": "227", "nomcom": "Paris", "insee": "75116", "typo_niv3": "Mus\u00e9e et \u00e9comus\u00e9e", "nom_carto": "Fondation Pierre Berg\u00e9 - Yves Saint-Laurent"}},{"type": "Feature", "geometry": {"coordinates": [2.287986481918982, 48.87180234240613, 0.0], "type": "Point"}, "properties": {"adresse": "35 BIS RUE PAUL VAL\u00c9RY", "dep": "75", "geo_point_2d": [48.8718023424, 2.28798648192], "objectid": "233", "nomcom": "Paris", "insee": "75116", "typo_niv3": "Mus\u00e9e et \u00e9comus\u00e9e", "nom_carto": "Mus\u00e9e Dapper"}},{"type": "Feature", "geometry": {"coordinates": [2.333703825413384, 48.88371672303032, 0.0], "type": "Point"}, "properties": {"adresse": "72 BOULEVARD DE CLICHY", "dep": "75", "geo_point_2d": [48.883716723, 2.33370382541], "objectid": "250", "nomcom": "Paris", "insee": "75118", "typo_niv3": "Mus\u00e9e et \u00e9comus\u00e9e", "nom_carto": "Mus\u00e9e de l'erotisme"}},{"type": "Feature", "geometry": {"coordinates": [2.703256188497531, 48.401220918246686, 0.0], "type": "Point"}, "properties": {"adresse": "PLACE D'ARMES", "dep": "77", "geo_point_2d": [48.4012209182, 2.7032561885], "objectid": "270", "nomcom": "FONTAINEBLEAU", "insee": "77186", "typo_niv3": "Site et monument", "nom_carto": "Ch\u00e2teau de Fontainebleau"}},{"type": "Feature", "geometry": {"coordinates": [3.285033751509835, 48.5620417518111, 0.0], "type": "Point"}, "properties": {"adresse": "Saint JEAN", "dep": "77", "geo_point_2d": [48.5620417518, 3.28503375151], "objectid": "281", "nomcom": "PROVINS", "insee": "77379", "typo_niv3": "Site et monument", "nom_carto": "Grange aux D\u00eemes"}},{"type": "Feature", "geometry": {"coordinates": [3.182149718570547, 48.90800485265421, 0.0], "type": "Point"}, "properties": {"adresse": "17 AVENUE DE LA FERT\u00c9-SOUS-JOUARRE", "dep": "77", "geo_point_2d": [48.9080048527, 3.18214971857], "objectid": "286", "nomcom": "Saint-CYR-SUR-MORIN", "insee": "77405", "typo_niv3": "Mus\u00e9e et \u00e9comus\u00e9e", "nom_carto": "Mus\u00e9e des pays de seine-et-marne"}},{"type": "Feature", "geometry": {"coordinates": [2.750850588571227, 48.16337975431137, 0.0], "type": "Point"}, "properties": {"adresse": "RUE ANTOINE HERO\u00cbT", "dep": "77", "geo_point_2d": [48.1633797543, 2.75085058857], "objectid": "287", "nomcom": "SOUPPES-SUR-LOING", "insee": "77458", "typo_niv3": "Site et monument", "nom_carto": "Abbaye royale ND de Cercanceaux"}},{"type": "Feature", "geometry": {"coordinates": [2.023007902450663, 48.680162290342274, 0.0], "type": "Point"}, "properties": {"adresse": "CHOISEL", "dep": "78", "geo_point_2d": [48.6801622903, 2.02300790245], "objectid": "290", "nomcom": "CHOISEL", "insee": "78160", "typo_niv3": "Site et monument", "nom_carto": "Ch\u00e2teau de Breteuil"}},{"type": "Feature", "geometry": {"coordinates": [2.081266076387212, 48.76433425415781, 0.0], "type": "Point"}, "properties": {"adresse": "1 PLACE GEORGES BESSE - HALL DE R\u00c9CEPTION \u00c0 L\u2019AVANC\u00c9E \u2013 NIVEAU", "dep": "78", "geo_point_2d": [48.7643342542, 2.08126607639], "objectid": "293", "nomcom": "GUYANCOURT", "insee": "78297", "typo_niv3": "Site et monument", "nom_carto": "Technocentre Renault"}},{"type": "Feature", "geometry": {"coordinates": [2.15161582986324, 48.76924855178209, 0.0], "type": "Point"}, "properties": {"adresse": "54 RUE CHARLES DE GAULLE - Ch\u00e2teau DE L'EGLANTINE", "dep": "78", "geo_point_2d": [48.7692485518, 2.15161582986], "objectid": "295", "nomcom": "JOUY-EN-JOSAS", "insee": "78322", "typo_niv3": "Mus\u00e9e et \u00e9comus\u00e9e", "nom_carto": "Mus\u00e9e de la toile de Jouy"}},{"type": "Feature", "geometry": {"coordinates": [2.028826349902108, 48.92393957228123, 0.0], "type": "Point"}, "properties": {"adresse": "82 RUE DE VILLIERS - CENTRE DES MONUMENTS NATIONAUX", "dep": "78", "geo_point_2d": [48.9239395723, 2.0288263499], "objectid": "299", "nomcom": "POISSY", "insee": "78498", "typo_niv3": "Site et monument", "nom_carto": "Villa Savoye"}},{"type": "Feature", "geometry": {"coordinates": [2.147026896604271, 48.6001799890637, 0.0], "type": "Point"}, "properties": {"adresse": "DOMAINE DE COURSON", "dep": "91", "geo_point_2d": [48.6001799891, 2.1470268966], "objectid": "321", "nomcom": "COURSON-MONTELOUP", "insee": "91186", "typo_niv3": "Site et monument", "nom_carto": "Domaine de Courson"}},{"type": "Feature", "geometry": {"coordinates": [2.343568479211792, 48.63071137687794, 0.0], "type": "Point"}, "properties": {"adresse": "8 RUE L\u00c9O LAGRANGE", "dep": "91", "geo_point_2d": [48.6307113769, 2.34356847921], "objectid": "328", "nomcom": "SaintE-GENEVIEVE-DES-BOIS", "insee": "91549", "typo_niv3": "Site et monument", "nom_carto": "Cimeti\u00e8re et \u00e9glise orthodoxe russe ND-de-l'assomption"}},{"type": "Feature", "geometry": {"coordinates": [2.23928110260167, 48.8358875724662, 0.0], "type": "Point"}, "properties": {"adresse": "28 AVENUE ANDR\u00c9 MORIZET - ESPACE LANDOWSKI", "dep": "92", "geo_point_2d": [48.8358875725, 2.2392811026], "objectid": "333", "nomcom": "BOULOGNE-BILLANCOURT", "insee": "92012", "typo_niv3": "Mus\u00e9e et \u00e9comus\u00e9e", "nom_carto": "Mus\u00e9e des ann\u00e9es 30"}},{"type": "Feature", "geometry": {"coordinates": [2.223494524977177, 48.828781459145866, 0.0], "type": "Point"}, "properties": {"adresse": "PLACE DE LA MANUFACTURE", "dep": "92", "geo_point_2d": [48.8287814591, 2.22349452498], "objectid": "343", "nomcom": "SEVRES", "insee": "92072", "typo_niv3": "Mus\u00e9e et \u00e9comus\u00e9e", "nom_carto": "Mus\u00e9e national de la c\u00e9ramique"}},{"type": "Feature", "geometry": {"coordinates": [1.788404135026782, 48.86034661766221, 0.0], "type": "Point"}, "properties": {"dep": "78", "geo_point_2d": [48.8603466177, 1.78840413503], "objectid": "399", "nomcom": "THOIRY", "insee": "78616", "typo_niv3": "Espace de loisirs, espace r\u00e9cr\u00e9atif", "nom_carto": "Zoo et parc de Thoiry"}},{"type": "Feature", "geometry": {"coordinates": [2.60084404939115, 49.14072837199941, 0.0], "type": "Point"}, "properties": {"dep": "60", "geo_point_2d": [49.140728372, 2.60084404939], "objectid": "401", "nomcom": "PLAILLY", "insee": "60494", "typo_niv3": "Espace de loisirs, espace r\u00e9cr\u00e9atif", "nom_carto": "Parc Asterix"}},{"type": "Feature", "geometry": {"coordinates": [2.376312718795238, 49.01762168846979, 0.0], "type": "Point"}, "properties": {"adresse": "RUE JEAN BULLANT", "dep": "95", "geo_point_2d": [49.0176216885, 2.3763127188], "objectid": "414", "nomcom": "ECOUEN", "insee": "95205", "typo_niv3": "Mus\u00e9e et \u00e9comus\u00e9e", "nom_carto": "Ch\u00e2teau d'Ecouen - mus\u00e9e la Renaissance"}},{"type": "Feature", "geometry": {"coordinates": [2.335715984036651, 48.85453345891948, 0.0], "type": "Point"}, "properties": {"adresse": "6 RUE DE FURSTENBERG", "dep": "75", "geo_point_2d": [48.8545334589, 2.33571598404], "objectid": "422", "nomcom": "Paris", "insee": "75106", "typo_niv3": "Mus\u00e9e et \u00e9comus\u00e9e", "nom_carto": "Mus\u00e9e national Eug\u00e8ne Delacroix"}},{"type": "Feature", "geometry": {"coordinates": [1.823998164240931, 48.64603303074528, 0.0], "type": "Point"}, "properties": {"adresse": "4 PLACE JEANNE D'ARC", "dep": "78", "geo_point_2d": [48.6460330307, 1.82399816424], "objectid": "429", "nomcom": "RAMBOUILLET", "insee": "78517", "typo_niv3": "Mus\u00e9e et \u00e9comus\u00e9e", "nom_carto": "Mus\u00e9e Rambolitrain"}},{"type": "Feature", "geometry": {"coordinates": [2.380179301354605, 48.834547521120975, 0.0], "type": "Point"}, "properties": {"adresse": "ESCALE DE BERCY", "dep": "75", "geo_point_2d": [48.8345475211, 2.38017930135], "objectid": "448", "nomcom": "Paris", "insee": "75112", "typo_niv3": "Haltes, escales ou ports fluviaux de plaisance", "nom_carto": "Escale de Bercy"}},{"type": "Feature", "geometry": {"coordinates": [2.287213911562335, 48.85529319694419, 0.0], "type": "Point"}, "properties": {"adresse": "ESCALE DE L'\u00ceLE-AUX-CYGNES", "dep": "75", "geo_point_2d": [48.8552931969, 2.28721391156], "objectid": "451", "nomcom": "Paris", "insee": "75116", "typo_niv3": "Haltes, escales ou ports fluviaux de plaisance", "nom_carto": "Escale de l'\u00efle-aux-Cygnes Bir-Hakeim"}},{"type": "Feature", "geometry": {"coordinates": [2.395668014472342, 48.82121179493742, 0.0], "type": "Point"}, "properties": {"adresse": "ESCALE D'IVRY", "dep": "94", "geo_point_2d": [48.8212117949, 2.39566801447], "objectid": "459", "nomcom": "IVRY SUR SEINE", "insee": "94041", "typo_niv3": "Haltes, escales ou ports fluviaux de plaisance", "nom_carto": "Escale d'Ivry"}},{"type": "Feature", "geometry": {"coordinates": [2.226498639343278, 48.827521475874796, 0.0], "type": "Point"}, "properties": {"dep": "92", "geo_point_2d": [48.8275214759, 2.22649863934], "objectid": "464", "nomcom": "S\u00c8VRES", "insee": "92072", "typo_niv3": "Haltes, escales ou ports fluviaux de plaisance", "nom_carto": "Escale de S\u00e8vres"}},{"type": "Feature", "geometry": {"coordinates": [2.48656674578628, 48.588246489608316, 0.0], "type": "Point"}, "properties": {"adresse": "138, ROUTE DE MORSANG", "dep": "91", "geo_point_2d": [48.5882464896, 2.48656674579], "objectid": "479", "nomcom": "SaintRY-SUR-SEINE", "insee": "91577", "typo_niv3": "Haltes, escales ou ports fluviaux de plaisance", "nom_carto": "Port de Saintry"}},{"type": "Feature", "geometry": {"coordinates": [2.716744831211539, 48.19965200498522, 0.0], "type": "Point"}, "properties": {"adresse": "HALTE DE LA MADELEINE-SUR-LOING", "dep": "77", "geo_point_2d": [48.199652005, 2.71674483121], "objectid": "485", "nomcom": "MADELEINE-SUR-LOING (LA)", "insee": "77267", "typo_niv3": "Haltes, escales ou ports fluviaux de plaisance", "nom_carto": "Halte"}},{"type": "Feature", "geometry": {"coordinates": [2.702653670375433, 48.88017454439064, 0.0], "type": "Point"}, "properties": {"adresse": "1 QUAI SAVARIN", "dep": "77", "geo_point_2d": [48.8801745444, 2.70265367038], "objectid": "498", "nomcom": "LAGNY-SUR-MARNE", "insee": "77243", "typo_niv3": "Haltes, escales ou ports fluviaux de plaisance", "nom_carto": "Halte de Lagny-sur-Marne"}},{"type": "Feature", "geometry": {"coordinates": [2.880939491413112, 48.95667653904142, 0.0], "type": "Point"}, "properties": {"adresse": "QUAI SADI CARNOT", "dep": "77", "geo_point_2d": [48.956676539, 2.88093949141], "objectid": "502", "nomcom": "MEAUX", "insee": "77284", "typo_niv3": "Haltes, escales ou ports fluviaux de plaisance", "nom_carto": "Halte fluviale de Meaux"}},{"type": "Feature", "geometry": {"coordinates": [2.749326719142184, 48.451178458044076, 0.0], "type": "Point"}, "properties": {"adresse": "PLACE DE LA R\u00c9PUBLIQUE", "dep": "77", "geo_point_2d": [48.451178458, 2.74932671914], "objectid": "506", "nomcom": "SAMOIS-SUR-SEINE", "insee": "77441", "typo_niv3": "Haltes, escales ou ports fluviaux de plaisance", "nom_carto": "Halte de Samois"}},{"type": "Feature", "geometry": {"coordinates": [2.81697953894983, 48.93333549566676, 0.0], "type": "Point"}, "properties": {"dep": "77", "geo_point_2d": [48.9333354957, 2.81697953895], "objectid": "509", "nomcom": "VIGNELY", "insee": "77498", "typo_niv3": "Haltes, escales ou ports fluviaux de plaisance", "nom_carto": "Halte  de Vignely"}},{"type": "Feature", "geometry": {"coordinates": [1.983831587479321, 48.9930938957244, 0.0], "type": "Point"}, "properties": {"adresse": "CHEMIN DE LA FONTAINE DES", "dep": "78", "geo_point_2d": [48.9930938957, 1.98383158748], "objectid": "520", "nomcom": "VAUX-SUR-SEINE", "insee": "78638", "typo_niv3": "Haltes, escales ou ports fluviaux de plaisance", "nom_carto": "Port de d\u00e9troit marine"}},{"type": "Feature", "geometry": {"coordinates": [2.602691350399957, 48.44473938229322, 83.22530000000552], "type": "Point"}, "properties": {"adresse": "PLACE MARC JACQUET", "dep": "77", "geo_point_2d": [48.4447393823, 2.6026913504], "objectid": "542", "nomcom": "BARBIZON", "insee": "77022", "typo_niv3": "Offices du tourisme et syndicats d'initiative"}},{"type": "Feature", "geometry": {"coordinates": [2.909903569261453, 48.85668579332446, -100000.0], "type": "Point"}, "properties": {"adresse": "1 PLACE DU MARCHE", "dep": "77", "geo_point_2d": [48.8566857933, 2.90990356926], "objectid": "547", "nomcom": "CRECY LA CHAPELLE", "insee": "77142", "typo_niv3": "Offices du tourisme et syndicats d'initiative"}},{"type": "Feature", "geometry": {"coordinates": [1.818953369580675, 48.6451738204915, 148.8000000000029], "type": "Point"}, "properties": {"adresse": "PLACE DE LA LIBERATION", "dep": "78", "geo_point_2d": [48.6451738205, 1.81895336958], "objectid": "575", "nomcom": "RAMBOUILLET", "insee": "78517", "typo_niv3": "Offices du tourisme et syndicats d'initiative"}},{"type": "Feature", "geometry": {"coordinates": [2.306477957385022, 48.902731905409425, -100000.0], "type": "Point"}, "properties": {"adresse": "61 RUE MARTRE", "dep": "92", "geo_point_2d": [48.9027319054, 2.30647795739], "objectid": "601", "nomcom": "CLICHY", "insee": "92024", "typo_niv3": "Offices du tourisme et syndicats d'initiative"}},{"type": "Feature", "geometry": {"coordinates": [2.171366028353221, 49.07093216828047, -100000.0], "type": "Point"}, "properties": {"adresse": "MANOIR DES COLOMBIERES, RUE DE LA SANSONNE", "dep": "95", "geo_point_2d": [49.0709321683, 2.17136602835], "objectid": "623", "nomcom": "AUVERS SUR OISE", "insee": "95039", "typo_niv3": "Offices du tourisme et syndicats d'initiative"}},{"type": "Feature", "geometry": {"coordinates": [2.20362399655854, 49.077095495923686, -100000.0], "type": "Point"}, "properties": {"adresse": "2 4 PLACE JEAN GABIN", "dep": "95", "geo_point_2d": [49.0770954959, 2.20362399656], "objectid": "629", "nomcom": "MERIEL", "insee": "95392", "typo_niv3": "Offices du tourisme et syndicats d'initiative"}},{"type": "Feature", "geometry": {"coordinates": [2.33880993115158, 48.87176834829977, -100000.0], "type": "Point"}, "properties": {"adresse": "5 bd Italiens", "dep": "75", "geo_point_2d": [48.8717683483, 2.33880993115], "objectid": "655", "nomcom": "Paris", "insee": "75102", "typo_niv3": "Espace de loisirs, espace r\u00e9cr\u00e9atif", "nom_carto": "La tete dans les nuages"}},{"type": "Feature", "geometry": {"coordinates": [2.652760394297545, 48.54474017953878, 0.0], "type": "Point"}, "properties": {"adresse": "8 RUE EMILE LECLERC", "dep": "77", "geo_point_2d": [48.5447401795, 2.6527603943], "objectid": "671", "nomcom": "MELUN", "insee": "77288", "typo_niv3": "Mus\u00e9e et \u00e9comus\u00e9e", "nom_carto": "Mus\u00e9e de la gendarmerie"}},{"type": "Feature", "geometry": {"coordinates": [2.786039202752757, 48.867563974682874, 0.0], "type": "Point"}, "properties": {"adresse": "77777 MARNE-LA-VALL\u00c9E CEDEX 4", "dep": "77", "geo_point_2d": [48.8675639747, 2.78603920275], "objectid": "7", "nomcom": "MARNE LA VALL\u00c9E", "insee": "77535", "typo_niv3": "Centre de congr\u00e8s et parc d'exposition", "nom_carto": "Business solutions - Disneyland\u00ae Paris"}},{"type": "Feature", "geometry": {"coordinates": [2.269798277205975, 48.82294945673457, 0.0], "type": "Point"}, "properties": {"adresse": "25 AVENUE VICTOR CRESSON 92130 ISSY LES MOULINEAUX", "dep": "92", "geo_point_2d": [48.8229494567, 2.26979827721], "objectid": "12", "nomcom": "ISSY LES MOULINEAUX", "insee": "92040", "typo_niv3": "Centre de congr\u00e8s et parc d'exposition", "nom_carto": "LE PALAIS DES CONGR\u00c8S D\u2019ISSY"}},{"type": "Feature", "geometry": {"coordinates": [2.341213719253286, 48.86890458504521, 0.0], "type": "Point"}, "properties": {"adresse": "28, PLACE DE LA BOURSE, 75002 PARIS", "dep": "75", "geo_point_2d": [48.868904585, 2.34121371925], "objectid": "20", "nomcom": "PARIS", "insee": "75102", "typo_niv3": "Centre de congr\u00e8s et parc d'exposition", "nom_carto": "PALAIS BRONGNIART"}},{"type": "Feature", "geometry": {"coordinates": [2.041730444520516, 49.03881129143419, 0.0], "type": "Point"}, "properties": {"dep": "95", "geo_point_2d": [49.0388112914, 2.04173044452], "objectid": "44", "nomcom": "CERGY", "insee": "95127", "typo_niv3": "Diffusion de l'art (autre que mus\u00e9e)", "nom_carto": "Axe majeur"}},{"type": "Feature", "geometry": {"coordinates": [2.29365132899469, 48.910691101549055, 0.0], "type": "Point"}, "properties": {"adresse": "89 RUE DU CHATEAU", "dep": "92", "geo_point_2d": [48.9106911015, 2.29365132899], "objectid": "52", "nomcom": "ASNIERES SUR SEINE", "insee": "92004", "typo_niv3": "Site et monument", "nom_carto": "Chateau d'Asnieres"}},{"type": "Feature", "geometry": {"coordinates": [2.217528177341401, 48.87194141311361, 0.0], "type": "Point"}, "properties": {"adresse": "123 BD WASHINGTON", "dep": "92", "geo_point_2d": [48.8719414131, 2.21752817734], "objectid": "55", "nomcom": "SURESNES", "insee": "92073", "typo_niv3": "Site et monument", "nom_carto": "Cimetiere Americain"}},{"type": "Feature", "geometry": {"coordinates": [2.333154782940448, 48.863115909221435, 0.0], "type": "Point"}, "properties": {"adresse": "107 RUE DE RIVOLI - LES ARTS D\u00c9CORATIFS", "dep": "75", "geo_point_2d": [48.8631159092, 2.33315478294], "objectid": "67", "nomcom": "Paris", "insee": "75101", "typo_niv3": "Mus\u00e9e et \u00e9comus\u00e9e", "nom_carto": "Mus\u00e9e de la publicit\u00e9"}},{"type": "Feature", "geometry": {"coordinates": [2.352048278363265, 48.85235750179279, 0.0], "type": "Point"}, "properties": {"adresse": "SQUARE DE L'ILE-DE-FRANCE", "dep": "75", "geo_point_2d": [48.8523575018, 2.35204827836], "objectid": "94", "nomcom": "Paris", "insee": "75104", "typo_niv3": "Site et monument", "nom_carto": "M\u00e9morial des martyrs de la d\u00e9portation"}},{"type": "Feature", "geometry": {"coordinates": [2.358273197991625, 48.84329106092364, 0.0], "type": "Point"}, "properties": {"adresse": "57 RUE CUVIER - MUS\u00c9UM NATIONAL D'HISTOIRE NATURELLE", "dep": "75", "geo_point_2d": [48.8432910609, 2.35827319799], "objectid": "102", "nomcom": "Paris", "insee": "75105", "typo_niv3": "Espace de loisirs, espace r\u00e9cr\u00e9atif", "nom_carto": "Serres du jardin des plantes"}},{"type": "Feature", "geometry": {"coordinates": [2.317552796584906, 48.847079430257004, 0.0], "type": "Point"}, "properties": {"adresse": "137 RUE DE S\u00c8VRES", "dep": "75", "geo_point_2d": [48.8470794303, 2.31755279658], "objectid": "128", "nomcom": "Paris", "insee": "75106", "typo_niv3": "Mus\u00e9e et \u00e9comus\u00e9e", "nom_carto": "Fondation Dubuffet"}},{"type": "Feature", "geometry": {"coordinates": [2.310874950695371, 48.86620640873638, 0.0], "type": "Point"}, "properties": {"adresse": "AVENUE FRANKLIN D. ROOSEVELT", "dep": "75", "geo_point_2d": [48.8662064087, 2.3108749507], "objectid": "176", "nomcom": "Paris", "insee": "75108", "typo_niv3": "Mus\u00e9e et \u00e9comus\u00e9e", "nom_carto": "Palais de la d\u00e9couverte"}},{"type": "Feature", "geometry": {"coordinates": [2.381654081707841, 48.8289534313421, 0.0], "type": "Point"}, "properties": {"adresse": "RUE FRAN\u00c7OISE DOLTO - QUAI PANHARD ET LEVASSOR", "dep": "75", "geo_point_2d": [48.8289534313, 2.38165408171], "objectid": "202", "nomcom": "Paris", "insee": "75113", "typo_niv3": "Site et monument", "nom_carto": "Halle aux farines des grands moulins de Paris"}},{"type": "Feature", "geometry": {"coordinates": [2.321578055983896, 48.84191908364844, 0.0], "type": "Point"}, "properties": {"adresse": "33 AVENUE DU MAINE", "dep": "75", "geo_point_2d": [48.8419190836, 2.32157805598], "objectid": "213", "nomcom": "Paris", "insee": "75115", "typo_niv3": "Site et monument", "nom_carto": "Tour Montparnasse"}},{"type": "Feature", "geometry": {"coordinates": [2.285193705510792, 48.85928358933348, 0.0], "type": "Point"}, "properties": {"adresse": "8 RUE BENJAMIN FRANKLIN", "dep": "75", "geo_point_2d": [48.8592835893, 2.28519370551], "objectid": "232", "nomcom": "Paris", "insee": "75116", "typo_niv3": "Mus\u00e9e et \u00e9comus\u00e9e", "nom_carto": "Mus\u00e9e Cl\u00e9menceau"}},{"type": "Feature", "geometry": {"coordinates": [2.251236070368229, 48.84777888790906, 0.0], "type": "Point"}, "properties": {"adresse": "2 AVENUE GORDON-BENNETT - STADE ROLAND-GARROS", "dep": "75", "geo_point_2d": [48.8477788879, 2.25123607037], "objectid": "243", "nomcom": "Paris", "insee": "75116", "typo_niv3": "Mus\u00e9e et \u00e9comus\u00e9e", "nom_carto": "Tenniseum Roland-Garros"}},{"type": "Feature", "geometry": {"coordinates": [2.31367781161564, 48.89654190122271, 0.0], "type": "Point"}, "properties": {"adresse": "8 RUE Saint JUST", "dep": "75", "geo_point_2d": [48.8965419012, 2.31367781162], "objectid": "244", "nomcom": "Paris", "insee": "75117", "typo_niv3": "Site et monument", "nom_carto": "Cimeti\u00e8re des Batignolles"}},{"type": "Feature", "geometry": {"coordinates": [2.331104333383243, 48.885455114066986, 0.0], "type": "Point"}, "properties": {"adresse": "20 AVENUE RACHEL", "dep": "75", "geo_point_2d": [48.8854551141, 2.33110433338], "objectid": "247", "nomcom": "Paris", "insee": "75118", "typo_niv3": "Site et monument", "nom_carto": "Cimeti\u00e8re de Montmartre"}},{"type": "Feature", "geometry": {"coordinates": [2.383666733554922, 48.89687922057816, 0.0], "type": "Point"}, "properties": {"adresse": "QUAI DE LA CHARENTE", "dep": "75", "geo_point_2d": [48.8968792206, 2.38366673355], "objectid": "256", "nomcom": "Paris", "insee": "75119", "typo_niv3": "Site et monument", "nom_carto": "Port du pont de Flandres"}},{"type": "Feature", "geometry": {"coordinates": [2.697102903591634, 48.26554733421198, 0.0], "type": "Point"}, "properties": {"adresse": "RUE GAUTHIER 1ER", "dep": "77", "geo_point_2d": [48.2655473342, 2.69710290359], "objectid": "276", "nomcom": "NEMOURS", "insee": "77333", "typo_niv3": "Site et monument", "nom_carto": "Ch\u00e2teau mus\u00e9e municipal de Nemours"}},{"type": "Feature", "geometry": {"coordinates": [3.295237812997271, 48.56108919662725, 0.0], "type": "Point"}, "properties": {"adresse": "RUE Saint-THIBAUD (SOUS L'H\u00d4TEL DIEU)", "dep": "77", "geo_point_2d": [48.5610891966, 3.295237813], "objectid": "285", "nomcom": "PROVINS", "insee": "77379", "typo_niv3": "Site et monument", "nom_carto": "Souterrains"}},{"type": "Feature", "geometry": {"coordinates": [2.095702323770479, 48.99246684956247, 0.0], "type": "Point"}, "properties": {"adresse": "PLACE JULES G\u00c9VELOT - Ch\u00e2teau DU PRIEUR\u00c9", "dep": "78", "geo_point_2d": [48.9924668496, 2.09570232377], "objectid": "292", "nomcom": "CONFLANS-SAINTE-HONORINE", "insee": "78172", "typo_niv3": "Mus\u00e9e et \u00e9comus\u00e9e", "nom_carto": "Mus\u00e9e de la Batellerie"}},{"type": "Feature", "geometry": {"coordinates": [2.062236876280414, 48.76894635333805, 0.0], "type": "Point"}, "properties": {"adresse": "AVENUE DE L'EUROPE", "dep": "78", "geo_point_2d": [48.7689463533, 2.06223687628], "objectid": "294", "nomcom": "GUYANCOURT", "insee": "78297", "typo_niv3": "Site et monument", "nom_carto": "Usine Thal\u00e8s"}},{"type": "Feature", "geometry": {"coordinates": [2.127797211034983, 48.80434466276559, 0.0], "type": "Point"}, "properties": {"adresse": "GRANDE \u00c9CURIE DU Ch\u00e2teau DE VERSAILLES - AVENUE ROCKFELLER", "dep": "78", "geo_point_2d": [48.8043446628, 2.12779721103], "objectid": "310", "nomcom": "VERSAILLES", "insee": "78646", "typo_niv3": "Mus\u00e9e et \u00e9comus\u00e9e", "nom_carto": "Acad\u00e9mie du spectacle equestre"}},{"type": "Feature", "geometry": {"coordinates": [2.236344901297377, 48.892305420399886, 0.0], "type": "Point"}, "properties": {"adresse": "35E \u00c9TAGE - PAROI NORD", "dep": "92", "geo_point_2d": [48.8923054204, 2.2363449013], "objectid": "340", "nomcom": "Paris-LA DEFENSE", "insee": "92062", "typo_niv3": "Site et monument", "nom_carto": "Grande Arche de la D\u00e9fense"}},{"type": "Feature", "geometry": {"coordinates": [2.525268665014976, 48.807387074147925, 0.0], "type": "Point"}, "properties": {"adresse": "88 AVENUE MARX DORMOY - PARC VERCORS", "dep": "94", "geo_point_2d": [48.8073870741, 2.52526866501], "objectid": "353", "nomcom": "CHAMPIGNY-SUR-MARNE", "insee": "94017", "typo_niv3": "Mus\u00e9e et \u00e9comus\u00e9e", "nom_carto": "Mus\u00e9e de la r\u00e9sistance nationale"}},{"type": "Feature", "geometry": {"coordinates": [2.475050531587112, 48.83327958035986, 0.0], "type": "Point"}, "properties": {"adresse": "12 AVENUE VICTOR HUGO", "dep": "94", "geo_point_2d": [48.8332795804, 2.47505053159], "objectid": "357", "nomcom": "NOGENT-SUR-MARNE", "insee": "94052", "typo_niv3": "Site et monument", "nom_carto": "Pavillon Baltard"}},{"type": "Feature", "geometry": {"coordinates": [2.100182648870171, 49.04864871064273, 0.0], "type": "Point"}, "properties": {"adresse": "17 RUE DU CHATEAU", "dep": "95", "geo_point_2d": [49.0486487106, 2.10018264887], "objectid": "370", "nomcom": "PONTOISE", "insee": "95500", "typo_niv3": "Mus\u00e9e et \u00e9comus\u00e9e", "nom_carto": "Mus\u00e9e Camille Pissaro"}},{"type": "Feature", "geometry": {"coordinates": [1.628052928281433, 49.08111847296714, 0.0], "type": "Point"}, "properties": {"adresse": "1 RUE DE L'AUDIENCE", "dep": "95", "geo_point_2d": [49.081118473, 1.62805292828], "objectid": "371", "nomcom": "LA ROCHE-GUYON", "insee": "95523", "typo_niv3": "Site et monument", "nom_carto": "Ch\u00e2teau de la Roche-Guyon"}},{"type": "Feature", "geometry": {"coordinates": [2.17782959453663, 49.07377493542895, 0.0], "type": "Point"}, "properties": {"adresse": "52 RUE DU GENERAL DE GAULLE", "dep": "95", "geo_point_2d": [49.0737749354, 2.17782959454], "objectid": "377", "nomcom": "AUVERS-SUR-OISE", "insee": "95039", "typo_niv3": "Mus\u00e9e et \u00e9comus\u00e9e", "nom_carto": "Auberge Ravoux dite maison de Van Gogh"}},{"type": "Feature", "geometry": {"coordinates": [2.390854438821722, 48.89087729914404, 0.0], "type": "Point"}, "properties": {"adresse": "30, AVENUE CORENTIN-CARIOU", "dep": "75", "geo_point_2d": [48.8908772991, 2.39085443882], "objectid": "380", "nomcom": "Paris", "insee": "75119", "typo_niv3": "Mus\u00e9e et \u00e9comus\u00e9e", "nom_carto": "La Villette"}},{"type": "Feature", "geometry": {"coordinates": [2.784170663008282, 48.852436220194775, 0.0], "type": "Point"}, "properties": {"adresse": "3 COURS DE LA GARONNE", "dep": "77", "geo_point_2d": [48.8524362202, 2.78417066301], "objectid": "381", "nomcom": "SERRIS", "insee": "77449", "typo_niv3": "Espace de loisirs, espace r\u00e9cr\u00e9atif", "nom_carto": "Vallee Village"}},{"type": "Feature", "geometry": {"coordinates": [1.764087521148051, 48.799413983927174, 0.0], "type": "Point"}, "properties": {"adresse": "1, AVENUE DES PLATANES", "dep": "78", "geo_point_2d": [48.7994139839, 1.76408752115], "objectid": "386", "nomcom": "LA QUEUE-LEZ-YVELINES", "insee": "78513", "typo_niv3": "Espace de loisirs, espace r\u00e9cr\u00e9atif", "nom_carto": "Serre aux Papillons"}},{"type": "Feature", "geometry": {"coordinates": [2.160971680905903, 48.42656595826873, 0.0], "type": "Point"}, "properties": {"adresse": "5, AVENUE CHARLES-DE-GAULLE", "dep": "91", "geo_point_2d": [48.4265659583, 2.16097168091], "objectid": "393", "nomcom": "ETAMPES", "insee": "91223", "typo_niv3": "Espace de loisirs, espace r\u00e9cr\u00e9atif", "nom_carto": "Ile de loisirs d'Etampes"}},{"type": "Feature", "geometry": {"coordinates": [2.047397410785327, 49.030972422149496, 0.0], "type": "Point"}, "properties": {"adresse": "RUE DES ETANGS", "dep": "95", "geo_point_2d": [49.0309724221, 2.04739741079], "objectid": "404", "nomcom": "CERGY-PONTOISE", "insee": "95127", "typo_niv3": "Espace de loisirs, espace r\u00e9cr\u00e9atif", "nom_carto": "Ile de loisirs de Cergy Pontoise"}},{"type": "Feature", "geometry": {"coordinates": [2.722908270500145, 48.91110278731239, 0.0], "type": "Point"}, "properties": {"adresse": "JABLINES", "dep": "77", "geo_point_2d": [48.9111027873, 2.7229082705], "objectid": "405", "nomcom": "JABLINES", "insee": "77234", "typo_niv3": "Espace de loisirs, espace r\u00e9cr\u00e9atif", "nom_carto": "Ile de loisirs de Jablines"}},{"type": "Feature", "geometry": {"coordinates": [2.783704197921628, 48.855223918726075, 0.0], "type": "Point"}, "properties": {"adresse": "14 COURS DU DANUBE", "dep": "77", "geo_point_2d": [48.8552239187, 2.78370419792], "objectid": "410", "nomcom": "SERRIS", "insee": "77449", "typo_niv3": "Espace de loisirs, espace r\u00e9cr\u00e9atif", "nom_carto": "Sealife"}},{"type": "Feature", "geometry": {"coordinates": [2.358593973468986, 48.7568445885481, 0.0], "type": "Point"}, "properties": {"adresse": "MARCH\u00c9 D'INTERET NATIONAL DE Paris-RUNGIS", "dep": "94", "geo_point_2d": [48.7568445885, 2.35859397347], "objectid": "420", "nomcom": "RUNGIS", "insee": "94065", "typo_niv3": "Site et monument", "nom_carto": "M.i.n de Rungis"}},{"type": "Feature", "geometry": {"coordinates": [2.334548483559995, 48.87791394905057, 0.0], "type": "Point"}, "properties": {"adresse": "14 RUE DE LA ROCHEFOUCAULD", "dep": "75", "geo_point_2d": [48.8779139491, 2.33454848356], "objectid": "426", "nomcom": "Paris", "insee": "75109", "typo_niv3": "Mus\u00e9e et \u00e9comus\u00e9e", "nom_carto": "Mus\u00e9e national Gustave Moreau"}},{"type": "Feature", "geometry": {"coordinates": [2.641207591544287, 48.53183398698772, 0.0], "type": "Point"}, "properties": {"adresse": "ESCALE DU M\u00c9E", "dep": "77", "geo_point_2d": [48.531833987, 2.64120759154], "objectid": "438", "nomcom": "M\u00c9E-SUR-SEINE (LE)", "insee": "77285", "typo_niv3": "Haltes, escales ou ports fluviaux de plaisance", "nom_carto": "Escale du M\u00e9e"}},{"type": "Feature", "geometry": {"coordinates": [2.350261325886931, 48.85180483673445, 0.0], "type": "Point"}, "properties": {"adresse": "NOTRE DAME", "dep": "75", "geo_point_2d": [48.8518048367, 2.35026132589], "objectid": "453", "nomcom": "Paris", "insee": "75105", "typo_niv3": "Haltes, escales ou ports fluviaux de plaisance", "nom_carto": "Escale Montebello Notre Dame"}},{"type": "Feature", "geometry": {"coordinates": [2.410893628683923, 48.81558025288871, 0.0], "type": "Point"}, "properties": {"dep": "94", "geo_point_2d": [48.8155802529, 2.41089362868], "objectid": "458", "nomcom": "ALFORTVILLE", "insee": "94002", "typo_niv3": "Haltes, escales ou ports fluviaux de plaisance", "nom_carto": "Escale Alfortville - Chinagora"}},{"type": "Feature", "geometry": {"coordinates": [2.488611851645317, 48.6085073491187, 0.0], "type": "Point"}, "properties": {"dep": "91", "geo_point_2d": [48.6085073491, 2.48861185165], "objectid": "468", "nomcom": "CORBEIL", "insee": "91174", "typo_niv3": "Haltes, escales ou ports fluviaux de plaisance", "nom_carto": "Escale Corbeil, Saint-Nicolas"}},{"type": "Feature", "geometry": {"coordinates": [2.401608992743147, 48.705537986617244, 0.0], "type": "Point"}, "properties": {"adresse": "FACE AU 33, QUAI DE L'INDUSTRIE", "dep": "91", "geo_point_2d": [48.7055379866, 2.40160899274], "objectid": "471", "nomcom": "ATHIS-MONS", "insee": "91027", "typo_niv3": "Haltes, escales ou ports fluviaux de plaisance", "nom_carto": "Port d'Athis-Mons"}},{"type": "Feature", "geometry": {"coordinates": [2.384056760625693, 48.89590982043555, 0.0], "type": "Point"}, "properties": {"adresse": "QUAI DE LA CHARENTE", "dep": "75", "geo_point_2d": [48.8959098204, 2.38405676063], "objectid": "490", "nomcom": "Paris", "insee": "75119", "typo_niv3": "Haltes, escales ou ports fluviaux de plaisance", "nom_carto": "Escale du parc de la Villette"}},{"type": "Feature", "geometry": {"coordinates": [2.756807226040543, 48.93857669792467, 0.0], "type": "Point"}, "properties": {"dep": "77", "geo_point_2d": [48.9385766979, 2.75680722604], "objectid": "497", "nomcom": "FRESNES-SUR-MARNE", "insee": "77196", "typo_niv3": "Haltes, escales ou ports fluviaux de plaisance", "nom_carto": "Halte de Fresnes-sur-Marne"}},{"type": "Feature", "geometry": {"coordinates": [2.917427549851008, 49.006002509408674, 0.0], "type": "Point"}, "properties": {"dep": "77", "geo_point_2d": [49.0060025094, 2.91742754985], "objectid": "508", "nomcom": "VARREDDES", "insee": "77483", "typo_niv3": "Haltes, escales ou ports fluviaux de plaisance", "nom_carto": "Halte de Varreddes"}},{"type": "Feature", "geometry": {"coordinates": [2.025094557916379, 48.92814019322017, 0.0], "type": "Point"}, "properties": {"adresse": "27 AVENUE DE L'ILE DE MIGNEAUX", "dep": "78", "geo_point_2d": [48.9281401932, 2.02509455792], "objectid": "517", "nomcom": "POISSY", "insee": "78498", "typo_niv3": "Haltes, escales ou ports fluviaux de plaisance", "nom_carto": "Port chantier de l'iIe de Migneaux"}},{"type": "Feature", "geometry": {"coordinates": [3.130553425466515, 48.9261620993342, -100000.0], "type": "Point"}, "properties": {"adresse": "1 RUE DE LA TOUR", "dep": "77", "geo_point_2d": [48.9261620993, 3.13055342547], "objectid": "550", "nomcom": "JOUARRE", "insee": "77238", "typo_niv3": "Offices du tourisme et syndicats d'initiative"}},{"type": "Feature", "geometry": {"coordinates": [2.704788559871969, 48.880216264074036, -100000.0], "type": "Point"}, "properties": {"adresse": "2 RUE DU CHEMIN DE FER", "dep": "77", "geo_point_2d": [48.8802162641, 2.70478855987], "objectid": "553", "nomcom": "LAGNY SUR MARNE", "insee": "77243", "typo_niv3": "Offices du tourisme et syndicats d'initiative"}},{"type": "Feature", "geometry": {"coordinates": [2.957416597905014, 48.38629652183743, -100000.0], "type": "Point"}, "properties": {"adresse": "10 RUE JEAN JAURES", "dep": "77", "geo_point_2d": [48.3862965218, 2.95741659791], "objectid": "557", "nomcom": "MONTEREAU FAUT YONNE", "insee": "77305", "typo_niv3": "Offices du tourisme et syndicats d'initiative"}},{"type": "Feature", "geometry": {"coordinates": [2.091378751278349, 48.99138755339959, -100000.0], "type": "Point"}, "properties": {"adresse": "1 RUE RENE ALBERT", "dep": "78", "geo_point_2d": [48.9913875534, 2.09137875128], "objectid": "566", "nomcom": "CONFLANS SAINTE-HONORINE", "insee": "78172", "typo_niv3": "Offices du tourisme et syndicats d'initiative"}},{"type": "Feature", "geometry": {"coordinates": [2.250381714936112, 48.58740603173797, -100000.0], "type": "Point"}, "properties": {"adresse": "22 BOULEVARD ABEL CORNATON", "dep": "91", "geo_point_2d": [48.5874060317, 2.25038171494], "objectid": "581", "nomcom": "ARPAJON", "insee": "91021", "typo_niv3": "Offices du tourisme et syndicats d'initiative"}},{"type": "Feature", "geometry": {"coordinates": [2.27545416748144, 48.72966191991736, -100000.0], "type": "Point"}, "properties": {"adresse": "4 BIS RUE DE LA DIVISION LECLERC", "dep": "91", "geo_point_2d": [48.7296619199, 2.27545416748], "objectid": "587", "nomcom": "MASSY", "insee": "91377", "typo_niv3": "Offices du tourisme et syndicats d'initiative"}},{"type": "Feature", "geometry": {"coordinates": [2.18391833476774, 48.8811388985803, -100000.0], "type": "Point"}, "properties": {"adresse": "118 AVENUE PAUL DOUMER", "dep": "92", "geo_point_2d": [48.8811388986, 2.18391833477], "objectid": "605", "nomcom": "RUEIL MALMAISON", "insee": "92063", "typo_niv3": "Offices du tourisme et syndicats d'initiative"}},{"type": "Feature", "geometry": {"coordinates": [2.423047622908944, 49.11218739661646, -100000.0], "type": "Point"}, "properties": {"adresse": "6, RUE Saint DAMIEN", "dep": "95", "geo_point_2d": [49.1121873966, 2.42304762291], "objectid": "627", "nomcom": "LUZARCHES", "insee": "95352", "typo_niv3": "Offices du tourisme et syndicats d'initiative"}},{"type": "Feature", "geometry": {"coordinates": [2.099617641274147, 49.04697167552006, -100000.0], "type": "Point"}, "properties": {"adresse": "PLACE DE LA PISCINE", "dep": "95", "geo_point_2d": [49.0469716755, 2.09961764127], "objectid": "632", "nomcom": "PONTOISE", "insee": "95500", "typo_niv3": "Offices du tourisme et syndicats d'initiative"}},{"type": "Feature", "geometry": {"coordinates": [2.541809389430674, 49.01441108867653, 0.0], "type": "Point"}, "properties": {"adresse": "AEROPORT CDG - TERMINAL 1", "dep": "77", "geo_point_2d": [49.0144110887, 2.54180938943], "objectid": "638", "nomcom": "MAUREGARD", "insee": "77282", "typo_niv3": "Offices du tourisme et syndicats d'initiative"}},{"type": "Feature", "geometry": {"coordinates": [2.57696537920357, 49.00329774613252, 0.0], "type": "Point"}, "properties": {"adresse": "AEROPORT CDG - TERMINAL 2E", "dep": "77", "geo_point_2d": [49.0032977461, 2.5769653792], "objectid": "643", "nomcom": "LE MESNIL-AMELOT", "insee": "77291", "typo_niv3": "Offices du tourisme et syndicats d'initiative"}},{"type": "Feature", "geometry": {"coordinates": [2.326935217164664, 48.87538242773344, 0.0], "type": "Point"}, "properties": {"adresse": "109 rue Saint-Lazare", "dep": "75", "geo_point_2d": [48.8753824277, 2.32693521716], "objectid": "661", "nomcom": "Paris", "insee": "75109", "typo_niv3": "Espace de loisirs, espace r\u00e9cr\u00e9atif", "nom_carto": "Passage du Havres - Saint lLazare"}},{"type": "Feature", "geometry": {"coordinates": [2.237753782074047, 48.89093493865105, 0.0], "type": "Point"}, "properties": {"adresse": "15 parvis de la D\u00e9fnese", "dep": "92", "geo_point_2d": [48.8909349387, 2.23775378207], "objectid": "664", "nomcom": "Paris la D\u00e9fense", "insee": "92026", "typo_niv3": "Espace de loisirs, espace r\u00e9cr\u00e9atif", "nom_carto": "Les 4 temps"}},{"type": "Feature", "geometry": {"coordinates": [2.287377318185088, 48.862199926698544, 0.0], "type": "Point"}, "properties": {"adresse": "17 PLACE DU TROCADERO", "dep": "75", "geo_point_2d": [48.8621999267, 2.28737731819], "objectid": "669", "nomcom": "PARIS", "insee": "75116", "typo_niv3": "Mus\u00e9e et \u00e9comus\u00e9e", "nom_carto": "Mus\u00e9e de l'Homme"}},{"type": "Feature", "geometry": {"coordinates": [2.350482835553536, 48.84864178400558, 0.0], "type": "Point"}, "properties": {"adresse": "24, RUE SAINT VICTOR, 75005 PARIS", "dep": "75", "geo_point_2d": [48.848641784, 2.35048283555], "objectid": "10", "nomcom": "PARIS", "insee": "75105", "typo_niv3": "Centre de congr\u00e8s et parc d'exposition", "nom_carto": "MAISON DE LA MUTUALIT\u00c9"}},{"type": "Feature", "geometry": {"coordinates": [2.316785780608923, 48.86015807589265, 0.0], "type": "Point"}, "properties": {"adresse": "28, RUE SAINT DOMINIQUE, 75007 PARIS", "dep": "75", "geo_point_2d": [48.8601580759, 2.31678578061], "objectid": "11", "nomcom": "PARIS", "insee": "75107", "typo_niv3": "Centre de congr\u00e8s et parc d'exposition", "nom_carto": "MAISON DE LA CHIMIE"}},{"type": "Feature", "geometry": {"coordinates": [2.385475767650524, 48.87761717254434, -100000.0], "type": "Point"}, "properties": {"adresse": "PLACE HANNAH ARENDT", "dep": "75", "geo_point_2d": [48.8776171725, 2.38547576765], "objectid": "26", "nomcom": "Paris 19EME", "insee": "75119", "typo_niv3": "Diffusion de l'art (autre que mus\u00e9e)", "nom_carto": "Le Plateau"}},{"type": "Feature", "geometry": {"coordinates": [2.300228334312598, 48.871714491513046, -100000.0], "type": "Point"}, "properties": {"adresse": "60 RUE DE BASSANO", "dep": "75", "geo_point_2d": [48.8717144915, 2.30022833431], "objectid": "27", "nomcom": "Paris 8EME", "insee": "75108", "typo_niv3": "Diffusion de l'art (autre que mus\u00e9e)", "nom_carto": "Espace culturel Louis Vuitton"}},{"type": "Feature", "geometry": {"coordinates": [2.33803468332423, 48.867868114892254, -100000.0], "type": "Point"}, "properties": {"adresse": "58 RUE DE RICHELIEU", "dep": "75", "geo_point_2d": [48.8678681149, 2.33803468332], "objectid": "30", "nomcom": "Paris 2EME", "insee": "75102", "typo_niv3": "Site et monument", "nom_carto": "Biblioth\u00e8que nationale de france, site Richelieu, bnf"}},{"type": "Feature", "geometry": {"coordinates": [2.327975027613699, 48.85236480829541, -100000.0], "type": "Point"}, "properties": {"adresse": "6 RUE RECAMIER", "dep": "75", "geo_point_2d": [48.8523648083, 2.32797502761], "objectid": "32", "nomcom": "Paris 7EME", "insee": "75107", "typo_niv3": "Diffusion de l'art (autre que mus\u00e9e)", "nom_carto": "Espace Electra - fondation electricit\u00e9 de France"}},{"type": "Feature", "geometry": {"coordinates": [2.321799545711555, 48.8368033475755, -100000.0], "type": "Point"}, "properties": {"adresse": "2 IMPASSE LEBOUIS", "dep": "75", "geo_point_2d": [48.8368033476, 2.32179954571], "objectid": "36", "nomcom": "Paris 14EME", "insee": "75114", "typo_niv3": "Diffusion de l'art (autre que mus\u00e9e)", "nom_carto": "Fondation Henri Cartier-Bresson"}},{"type": "Feature", "geometry": {"coordinates": [2.368392074008476, 48.89026543201923, -100000.0], "type": "Point"}, "properties": {"adresse": "104 RUE D'AUBERVILLIERS", "dep": "75", "geo_point_2d": [48.890265432, 2.36839207401], "objectid": "38", "nomcom": "Paris 19EME", "insee": "75119", "typo_niv3": "Diffusion de l'art (autre que mus\u00e9e)", "nom_carto": "Le 104 centquatre"}},{"type": "Feature", "geometry": {"coordinates": [2.332684659635705, 48.86538806061489, 0.0], "type": "Point"}, "properties": {"adresse": "296 RUE Saint-HONOR\u00c9", "dep": "75", "geo_point_2d": [48.8653880606, 2.33268465964], "objectid": "61", "nomcom": "Paris", "insee": "75101", "typo_niv3": "Site et monument", "nom_carto": "Eglise Saint-Roch"}},